     2.11           OBSERVATION DATA    G:GPS               RINEX VERSION / TYPE
HBC                 HITARGET            2024/12/3           PGM / RUN BY / DATE 
BLANK OR G=GPS, R=GLONASS, C=BDS, E=GAL, J=QZSS, M=MIXED    COMMENT             
------------------------------------------------------------COMMENT             
*** Antenna height is from mark to Refer Point .            COMMENT             
------------------------------------------------------------COMMENT             
P080                                                        MARKER NAME         
                                                            MARKER NUMBER       
whoever             HITARGET                                OBSERVER / AGENCY   
16270721            A40                                     REC # / TYPE / VERS 
                    HITA40                                  ANT # / TYPE        
  -933365.7781  5591066.3081  2919581.5067                  APPROX POSITION XYZ 
        1.9998        0.0000        0.0000                  ANTENNA: DELTA H/E/N
    12    C1    L1    D1    S1    P2    L2    D2    S2    C5# / TYPES OF OBSERV
          L5    D5    S5                                    # / TYPES OF OBSERV 
     5.000                                                  INTERVAL            
  2024    12     3     2    23   50.0000000     GPS         TIME OF FIRST OBS   
  2024    12     3     5    24   45.0000000     GPS         TIME OF LAST OBS    
     0                                                      RCV CLOCK OFFS APPL 
    18                                                      LEAP SECONDS        
                                                            END OF HEADER       
 24 12 03 02 23 50.0000000  0  7G10G21G23G25G28G31G32
  20496998.016 8 107712450.672 8      -662.516          51.000    20497001.109 8
  83931794.102 8      -516.215          48.000    20496997.797 8  80434621.480 8
      -494.727          51.000  
  24378183.078 6 128108214.539 6       -17.691          41.000    24378186.469 5
  99824595.242 5       -13.730          35.000                                  
                                
  22739589.969 7 119497348.227 7     -3039.152          44.000    22739596.641 6
  93114844.242 6     -2368.176          40.000                                  
                                
  21635330.086 7 113694426.855 7        63.328          45.000    21635335.531 7
  88593090.746 7        49.344          43.000    21635334.508 7  84901698.957 7
        47.254          47.000  
  20762565.188 7 109108016.020 7       494.523          47.000    20762566.523 7
  85019237.898 7       385.363          45.000                                  
                                
  21961615.078 7 115409067.148 7      2426.168          45.000    21961617.227 7
  89929150.098 7      1890.496          45.000                                  
                                
  21599515.563 8 113506217.945 8       194.969          49.000    21599518.266 7
  88446412.469 7       151.906          46.000    21599515.117 8  84761135.379 8
       145.539          48.000  
 24 12 03 02 23 55.0000000  0  7G10G21G23G25G28G31G32
  20497629.516 8 107715769.176 8      -665.098          51.000    20497632.570 7
  83934379.934 7      -518.293          47.000    20497629.289 8  80437099.566 8
      -496.637          51.000  
  24378200.398 6 128108305.766 6       -19.238          41.000    24378203.859 5
  99824666.348 5       -14.938          35.000                                  
                                
  22742482.281 7 119512547.461 7     -3040.695          44.000    22742488.969 6
  93126687.734 6     -2369.375          40.000                                  
                                
  21635271.188 7 113694117.371 7        60.391          44.000    21635276.617 7
  88592849.582 7        47.047          44.000    21635275.617 7  84901467.836 7
        45.098          47.000  
  20762095.555 7 109105548.059 7       492.496          47.000    20762096.883 7
  85017314.809 7       383.754          45.000                                  
                                
  21959307.445 7 115396940.488 7      2424.469          45.000    21959309.609 7
  89919700.742 7      1889.184          45.000                                  
                                
  21599330.055 8 113505243.191 8       194.820          49.000    21599332.852 7
  88445652.914 7       151.777          46.000    21599329.641 8  84760407.461 8
       145.496          48.000  
 24 12 03 02 24  0.0000000  0  7G10G21G23G25G28G31G32
  20498263.375 8 107719100.172 8      -668.293          51.000    20498266.453 8
  83936975.504 8      -520.738          48.000    20498263.164 8  80439586.984 8
      -499.059          51.000  
  24378219.383 6 128108405.617 6       -21.781          41.000    24378222.875 5
  99824744.109 5       -16.855          35.000                                  
                                
  22745375.813 7 119527752.969 7     -3042.477          44.000    22745382.484 6
  93138536.141 6     -2370.770          40.000                                  
                                
  21635215.016 7 113693822.230 7        56.813          44.000    21635220.461 7
  88592619.605 7        44.211          44.000    21635219.461 7  84901247.441 7
        42.453          47.000  
  20761627.750 7 109103089.719 7       489.863          47.000    20761629.070 7
  85015399.219 7       381.727          45.000                                  
                                
  21957001.352 7 115384821.988 7      2422.086          45.000    21957003.570 7
  89910257.758 7      1887.336          45.000                                  
                                
  21599144.492 8 113504268.160 8       194.188          49.000    21599147.344 7
  88444893.145 7       151.340          46.000    21599144.102 8  84759679.352 8
       144.969          48.000  
 24 12 03 02 24  5.0000000  0  7G10G21G23G25G28G31G32
  20498899.938 8 107722445.262 8      -670.742          51.000    20498902.984 8
  83939582.051 8      -522.648          48.000    20498899.719 8  80442084.918 8
      -500.844          51.000  
  24378240.344 6 128108515.609 6       -23.254          41.000    24378243.836 5
  99824829.816 5       -18.102          35.000                                  
                                
  22748270.859 7 119542966.449 7     -3043.773          44.000    22748277.523 6
  93150390.727 6     -2371.773          40.000                                  
                                
  21635161.875 7 113693543.066 7        53.941          44.000    21635167.352 7
  88592402.059 7        42.137          44.000    21635166.344 7  84901038.965 7
        40.336          47.000  
  20761162.094 7 109100642.621 7       488.035          47.000    20761163.391 7
  85013492.375 7       380.301          45.000    20761165.211 8  81471271.44518
       364.484          51.000  
  21954697.125 7 115372713.250 7      2420.539          45.000    21954699.430 7
  89900822.387 7      1886.109          45.000                                  
                                
  21598959.211 8 113503294.473 8       194.379          49.000    21598962.055 7
  88444134.410 7       151.516          46.000    21598958.828 8  84758952.230 8
       145.180          48.000  
 24 12 03 02 24 10.0000000  0  7G10G21G23G25G28G31G32
  20499539.727 8 107725807.402 8      -672.957          51.000    20499542.789 7
  83942201.883 7      -524.352          47.000    20499539.516 8  80444595.594 8
      -502.566          51.000  
  24378263.781 6 128108638.727 6       -24.617          41.000    24378267.273 5
  99824925.707 5       -19.188          35.000                                  
                                
  22751167.984 7 119558190.766 7     -3044.766          44.000    22751174.625 6
  93162253.766 6     -2372.551          40.000                                  
                                
  21635112.344 7 113693282.785 7        51.398          44.000    21635117.836 7
  88592199.254 7        40.000          44.000    21635116.813 7  84900844.613 7
        38.277          47.000  
  20760699.125 7 109098209.707 7       486.281          47.000    20760700.414 7
  85011596.586 7       378.938          45.000    20760702.227 8  81469454.652 8
       363.172          51.000  
  21952395.289 7 115360617.195 7      2419.188          45.000    21952397.617 7
  89891396.887 7      1885.020          45.000                                  
                                
  21598774.727 8 113502325.066 8       194.707          49.000    21598777.586 7
  88443379.027 7       151.727          46.000    21598774.359 8  84758228.328 8
       145.375          48.000  
 24 12 03 02 24 15.0000000  0  7G10G21G23G25G28G31G32
  20500181.969 8 107729182.344 8      -676.836          51.000    20500185.016 7
  83944831.691 7      -527.391          47.000    20500181.750 8  80447115.820 8
      -505.398          51.000  
  24378288.914 6 128108770.707 6       -27.754          41.000    24378292.398 5
  99825028.547 5       -21.648          35.000                                  
                                
  22754066.359 7 119573421.688 7     -3047.547          44.000    22754073.000 6
  93174121.961 6     -2374.711          40.000                                  
                                
  21635065.609 7 113693037.195 7        47.160          44.000    21635071.117 7
  88592007.879 7        36.695          44.000    21635070.070 7  84900661.211 7
        35.137          47.000  
  20760238.039 7 109095786.703 7       483.023          47.000    20760239.328 7
  85009708.531 7       376.418          45.000    20760241.172 8  81467645.266 8
       360.703          51.000  
  21950095.086 7 115348529.637 7      2416.137          45.000    21950097.406 7
  89881978.004 7      1882.684          45.000                                  
                                
  21598590.258 8 113501355.711 8       193.340          49.000    21598593.133 7
  88442623.688 7       150.594          46.000    21598589.906 8  84757504.453 8
       144.375          48.000  
 24 12 03 02 24 20.0000000  0  7G10G21G23G25G28G31G32
  20500827.172 8 107732572.914 8      -678.855          50.000    20500830.219 7
  83947473.684 7      -528.984          47.000    20500826.969 8  80449647.723 8
      -506.930          51.000  
  24378316.289 6 128108914.406 6       -29.238          40.000    24378319.750 5
  99825140.484 5       -22.758          35.000                                  
                                
  22756966.508 7 119588662.012 7     -3048.211          43.000    22756973.164 6
  93185997.504 6     -2375.234          40.000                                  
                                
  21635022.195 7 113692809.086 7        44.711          44.000    21635027.703 7
  88591830.133 7        34.781          44.000    21635026.656 7  84900490.863 7
        33.344          47.000  
  20759779.375 7 109093376.445 7       481.594          46.000    20759780.672 7
  85007830.422 7       375.250          45.000    20759782.531 8  81465845.395 8
       359.605          51.000  
  21947797.031 7 115336453.379 7      2414.902          45.000    21947799.367 7
  89872567.930 7      1881.746          45.000                                  
                                
  21598406.336 8 113500389.227 8       193.852          49.000    21598409.203 7
  88441870.570 7       151.023          46.000    21598406.000 8  84756782.719 8
       144.723          48.000  
 24 12 03 02 24 25.0000000  0  7G10G21G23G25G28G31G32
  20501474.789 8 107735976.125 8      -682.480          50.000    20501477.828 8
  83950125.504 8      -531.688          48.000    20501474.586 8  80452189.066 8
      -509.648          51.000  
  24378345.313 6 128109066.762 6       -31.934          40.000    24378348.750 5
  99825259.168 5       -24.809          35.000                                  
                                
  22759867.875 7 119603908.754 7     -3050.715          43.000    22759874.531 6
  93197878.004 6     -2377.184          40.000                                  
                                
  21634981.547 7 113692595.477 7        40.586          44.000    21634987.063 7
  88591663.660 7        31.738          44.000    21634985.992 7  84900331.336 7
        30.426          47.000  
  20759322.555 7 109090975.922 7       478.582          46.000    20759323.867 7
  85005959.875 7       372.930          45.000    20759325.742 8  81464052.797 8
       357.348          51.000  
  21945500.555 7 115324385.434 7      2412.230          45.000    21945502.891 7
  89863164.332 7      1879.719          45.000                                  
                                
  21598222.391 8 113499422.609 8       192.746          49.000    21598225.242 7
  88441117.352 7       150.250          46.000    21598222.063 8  84756060.887 8
       143.945          48.000  
 24 12 03 02 24 30.0000000  0  7G10G21G23G25G28G31G32
  20502125.813 8 107739397.242 8      -684.867          50.000    20502128.852 8
  83952791.297 8      -533.656          48.000    20502125.609 8  80454743.781 8
      -511.453          51.000  
  24378376.992 6 128109233.074 6       -33.480          40.000    24378380.391 5
  99825388.754 5       -26.109          35.000                                  
                                
  22762771.461 7 119619167.156 7     -3051.766          43.000    22762778.133 6
  93209767.617 6     -2378.004          40.000                                  
                                
  21634944.664 7 113692401.648 7        37.887          44.000    21634950.188 7
  88591512.633 7        29.535          44.000    21634949.102 7  84900186.602 7
        28.281          47.000  
  20758868.602 7 109088590.434 7       476.676          46.000    20758869.922 7
  85004101.047 7       371.430          45.000    20758871.805 8  81462271.422 8
       355.965          51.000  
  21943206.672 7 115312331.098 7      2410.582          45.000    21943209.031 7
  89853771.348 7      1878.395          45.000                                  
                                
  21598039.430 8 113498461.141 8       192.891          49.000    21598042.266 7
  88440368.148 7       150.324          46.000    21598039.109 8  84755342.898 8
       144.051          48.000  
 24 12 03 02 24 35.0000000  0  7G10G21G23G25G28G31G32
  20502779.141 8 107742830.465 8      -688.539          50.000    20502782.172 8
  83955466.531 8      -536.512          48.000    20502778.938 8  80457307.535 8
      -514.156          51.000  
  24378410.211 6 128109407.559 6       -36.438          40.000    24378413.586 5
  99825524.727 5       -28.512          35.000                                  
                                
  22765676.172 7 119634431.441 7     -3054.125          44.000    22765682.852 6
  93221661.824 6     -2379.836          40.000                                  
                                
  21634910.438 7 113692221.781 7        33.922          44.000    21634915.945 7
  88591372.488 7        26.402          44.000    21634914.867 7  84900052.293 7
        25.281          47.000  
  20758416.391 7 109086214.133 7       473.625          46.000    20758417.734 7
  85002249.398 7       369.063          45.000    20758419.617 8  81460496.914 8
       353.684          51.000  
  21940914.273 7 115300284.504 7      2407.828          45.000    21940916.648 7
  89844384.391 7      1876.293          45.000                                  
                                
  21597856.344 8 113497499.023 8       191.762          49.000    21597859.164 7
  88439618.445 7       149.469          46.000    21597856.031 8  84754624.430 8
       143.242          48.000  
 24 12 03 02 24 40.0000000  0  7G10G21G23G25G28G31G32
  20503435.781 8 107746281.094 8      -692.137          51.000    20503438.789 8
  83958155.305 8      -539.289          48.000    20503435.578 8  80459884.277 8
      -516.805          51.000  
  24378446.000 6 128109595.477 6       -39.082          41.000    24378449.344 5
  99825671.113 5       -30.496          35.000                                  
                                
  22768583.008 7 119649706.855 7     -3056.516          44.000    22768589.688 6
  93233564.699 6     -2381.703          40.000                                  
                                
  21634879.883 7 113692061.191 7        29.875          44.000    21634885.359 7
  88591247.336 7        23.301          44.000    21634884.297 7  84899932.359 7
        22.297          47.000  
  20757966.938 7 109083852.336 7       470.633          46.000    20757968.297 7
  85000409.035 7       366.707          45.000    20757970.188 8  81458733.230 8
       351.434          51.000  
  21938624.359 7 115288251.016 7      2405.051          45.000    21938626.750 7
  89835007.645 7      1874.109          45.000                                  
                                
  21597674.148 8 113496541.539 8       190.758          49.000    21597676.938 7
  88438872.348 7       148.586          46.000    21597673.828 8  84753909.418 8
       142.438          48.000  
 24 12 03 02 24 45.0000000  0  7G10G21G23G25G28G31G32
  20504095.227 8 107749746.492 8      -694.410          51.000    20504098.227 8
  83960855.609 8      -541.133          48.000    20504095.031 8  80462472.059 8
      -518.559          51.000  
  24378483.844 6 128109794.203 6       -40.613          40.000    24378487.164 5
  99825825.969 5       -31.680          35.000                                  
                                
  22771491.469 7 119664990.809 7     -3057.605          44.000    22771498.156 6
  93245474.207 6     -2382.559          40.000                                  
                                
  21634852.492 7 113691917.266 7        27.113          44.000    21634857.961 7
  88591135.199 7        21.086          44.000    21634856.906 7  84899824.883 7
        20.230          47.000  
  20757519.750 7 109081502.398 7       468.848          46.000    20757521.125 7
  84998577.918 7       365.324          45.000    20757523.016 8  81456978.402 8
       350.168          51.000  
  21936336.445 7 115276228.000 7      2403.613          45.000    21936338.852 7
  89825639.066 7      1872.945          45.000                                  
                                
  21597492.328 8 113495586.086 8       190.906          49.000    21597495.109 7
  88438127.836 7       148.762          46.000    21597492.016 8  84753195.930 8
       142.516          48.000  
 24 12 03 02 24 50.0000000  0  7G10G21G23G25G28G31G32
  20504757.742 8 107753228.008 8      -698.020          50.000    20504760.727 8
  83963568.457 8      -543.922          48.000    20504757.547 8  80465071.875 8
      -521.234          51.000  
  24378523.992 6 128110005.063 6       -43.512          41.000    24378527.289 5
  99825990.266 5       -33.941          35.000                                  
                                
  22774401.797 7 119680284.570 7     -3059.840          44.000    22774408.492 6
  93257391.383 6     -2384.297          40.000                                  
                                
  21634828.508 7 113691791.293 7        23.336          44.000    21634833.953 7
  88591037.027 7        18.168          44.000    21634832.930 7  84899730.805 7
        17.426          47.000  
  20757075.063 7 109079165.648 7       465.926          46.000    20757076.469 7
  84996757.070 7       363.039          45.000    20757078.352 8  81455233.430 8
       347.918          51.000  
  21934050.781 7 115264216.770 7      2400.969          45.000    21934053.188 7
  89816279.660 7      1870.906          45.000                                  
                                
  21597311.148 8 113494633.965 8       189.941          49.000    21597313.906 7
  88437385.902 7       148.105          46.000    21597310.836 8  84752484.914 8
       141.840          48.000  
 24 12 03 02 24 55.0000000  0  7G10G21G23G25G28G31G32
  20505421.836 8 107756717.832 8      -699.238          50.000    20505424.805 8
  83966287.785 8      -544.871          48.000    20505421.648 8  80467677.891 8
      -522.129          51.000  
  24378564.961 6 128110220.238 6       -43.867          41.000    24378568.234 5
  99826157.879 5       -34.246          35.000                                  
                                
  22777312.523 7 119695580.375 7     -3059.941          44.000    22777319.211 6
  93269310.109 6     -2384.375          40.000                                  
                                
  21634806.453 7 113691675.508 7        21.656          44.000    21634811.898 7
  88590946.813 7        16.855          44.000    21634810.898 7  84899644.352 7
        16.156          47.000  
  20756631.398 7 109076834.273 7       465.246          46.000    20756632.828 7
  84994940.402 7       362.555          45.000    20756634.711 8  81453492.465 8
       347.430          51.000  
  21931765.875 7 115252209.547 7      2400.574          45.000    21931768.305 7
  89806923.391 7      1870.566          45.000                                  
                                
  21597129.117 8 113493677.398 8       191.254          49.000    21597131.867 7
  88436640.527 7       149.074          46.000    21597128.813 8  84751770.594 8
       142.801          48.000  
 24 12 03 02 25  0.0000000  0  7G10G21G23G25G28G31G32
  20506089.078 8 107760223.902 8      -703.184          50.000    20506091.961 8
  83969019.777 8      -547.918          48.000    20506088.969 8  80470296.051 8
      -525.109          51.000  
  24378608.516 6 128110447.703 6       -47.211          40.000    24378611.594 5
  99826335.145 5       -36.789          35.000                                  
                                
  22780225.344 7 119710886.121 7     -3062.555          44.000    22780232.203 6
  93281236.637 6     -2386.414          40.000                                  
                                
  21634787.805 7 113691577.855 7        17.379          44.000    21634793.211 7
  88590870.727 7        13.492          44.000    21634792.266 7  84899571.434 7
        12.891          47.000  
  20756190.148 7 109074516.223 7       461.922          46.000    20756191.750 7
  84993134.152 7       359.934          45.000    20756193.609 8  81451761.457 8
       344.938          51.000  
  21929483.094 7 115240214.281 7      2397.473          45.000    21929485.648 7
  89797576.438 7      1868.145          45.000                                  
                                
  21596947.734 8 113492724.324 8       189.879          49.000    21596950.391 7
  88435897.875 7       147.949          46.000    21596947.523 8  84751058.879 8
       141.773          48.000  
 24 12 03 02 25  5.0000000  0  7G10G21G23G25G28G31G32
  20506759.688 8 107763747.969 8      -706.594          50.000    20506762.547 8
  83971765.785 8      -550.605          48.000    20506759.578 8  80472927.637 8
      -527.629          51.000  
  24378654.492 6 128110689.180 6       -49.648          40.000    24378657.555 5
  99826523.313 5       -38.723          35.000                                  
                                
  22783140.203 7 119726203.582 7     -3064.652          44.000    22783147.055 6
  93293172.242 6     -2388.039          40.000                                  
                                
  21634772.992 7 113691500.074 7        13.738          44.000    21634778.406 7
  88590810.129 7        10.520          44.000    21634777.469 7  84899513.344 7
        10.195          47.000  
  20755751.883 7 109072213.238 7       459.141          46.000    20755753.523 7
  84991339.602 7       357.770          45.000    20755755.367 8  81450041.684 8
       342.910          51.000  
  21927203.086 7 115228232.707 7      2394.965          45.000    21927205.602 7
  89788240.141 7      1866.230          45.000                                  
                                
  21596767.375 8 113491776.492 8       189.074          49.000    21596770.039 7
  88435159.293 7       147.352          46.000    21596767.164 8  84750351.070 8
       141.219          48.000  
 24 12 03 02 25 10.0000000  0  7G10G21G23G25G28G31G32
  20507433.680 8 107767289.805 8      -708.793          50.000    20507436.531 8
  83974525.641 8      -552.281          48.000    20507433.570 8  80475572.492 8
      -529.254          51.000  
  24378703.086 6 128110944.426 6       -50.848          40.000    24378706.109 5
  99826722.148 5       -39.664          35.000                                  
                                
  22786057.219 7 119741532.457 7     -3065.516          44.000    22786064.094 6
  93305116.766 6     -2388.723          40.000                                  
                                
  21634761.906 7 113691441.918 7        11.156          44.000    21634767.344 7
  88590764.809 7         8.523          44.000    21634766.414 7  84899469.914 7
         8.309          47.000  
  20755316.438 7 109069925.070 7       457.574          46.000    20755318.109 7
  84989556.602 7       356.559          45.000    20755319.953 8  81448332.984 8
       341.738          51.000  
  21924925.641 7 115216264.598 7      2393.766          45.000    21924928.125 7
  89778914.348 7      1865.219          45.000                                  
                                
  21596587.961 8 113490833.668 8       189.516          49.000    21596590.617 7
  88434424.613 7       147.703          46.000    21596587.750 8  84749647.008 8
       141.516          48.000  
 24 12 03 02 25 15.0000000  0  7G10G21G23G25G28G31G32
  20508109.836 8 107770842.996 8      -712.398          50.000    20508112.688 8
  83977294.344 8      -555.129          48.000    20508109.727 8  80478225.832 8
      -531.969          51.000  
  24378753.063 6 128111207.020 6       -53.828          40.000    24378756.063 5
  99826926.754 5       -42.000          35.000                                  
                                
  22788975.195 7 119756866.387 7     -3067.941          43.000    22788982.086 6
  93317065.219 6     -2390.609          40.000                                  
                                
  21634753.344 7 113691396.988 7         7.211          44.000    21634758.789 7
  88590729.789 7         5.535          44.000    21634757.875 7  84899436.363 7
         5.348          47.000  
  20754882.594 7 109067645.309 7       454.512          46.000    20754884.305 7
  84987780.156 7       354.184          45.000    20754886.133 8  81446630.566 8
       339.391          51.000  
  21922649.539 7 115204303.570 7      2390.867          45.000    21922652.008 7
  89769594.047 7      1863.043          45.000                                  
                                
  21596408.273 8 113489889.445 8       188.383          49.000    21596410.922 7
  88433688.848 7       146.816          46.000    21596408.078 8  84748941.898 8
       140.684          48.000  
 24 12 03 02 25 20.0000000  0  7G10G21G23G25G28G31G32
  20508789.047 8 107774412.246 8      -715.551          50.000    20508791.891 8
  83980075.574 8      -557.570          48.000    20508788.930 8  80480891.168 8
      -534.301          51.000  
  24378805.344 6 128111481.703 6       -56.270          40.000    24378808.336 5
  99827140.773 5       -43.785          35.000                                  
                                
  22791895.023 7 119772210.035 7     -3069.855          43.000    22791901.938 6
  93329021.246 6     -2392.098          40.000                                  
                                
  21634748.203 7 113691370.012 7         3.602          44.000    21634753.664 7
  88590708.777 7         2.734          44.000    21634752.750 7  84899416.230 7
         2.598          47.000  
  20754451.242 7 109065378.652 7       451.910          46.000    20754452.984 7
  84986013.934 7       352.137          45.000    20754454.805 8  81444937.930 8
       337.449          51.000  
  21920375.672 7 115192354.270 7      2388.508          45.000    21920378.141 7
  89760282.914 7      1861.262          45.000                                  
                                
  21596229.219 8 113488948.516 8       187.758          49.000    21596231.859 7
  88432955.656 7       146.324          46.000    21596229.039 8  84748239.258 8
       140.164          48.000  
 24 12 03 02 25 25.0000000  0  7G10G21G23G25G28G31G32
  20509471.133 8 107777996.594 8      -718.664          50.000    20509473.961 8
  83982868.559 8      -559.992          48.000    20509471.016 8  80483567.781 8
      -536.688          51.000  
  24378859.734 6 128111767.449 6       -58.531          40.000    24378862.734 5
  99827363.430 5       -45.590          35.000                                  
                                
  22794816.500 7 119787562.438 7     -3071.668          44.000    22794823.453 6
  93340984.113 6     -2393.512          40.000                                  
                                
  21634746.297 7 113691360.027 7        -0.004          44.000    21634751.789 7
  88590700.980 7         0.105          44.000    21634750.859 8  84899408.766 8
         0.039          48.000  
  20754022.219 7 109063124.145 7       449.395          46.000    20754023.984 7
  84984257.188 7       350.188          45.000    20754025.789 8  81443254.367 8
       335.625          51.000  
  21918103.867 7 115180415.797 7      2386.340          45.000    21918106.328 7
  89750980.215 7      1859.508          45.000                                  
                                
  21596050.609 8 113488009.949 8       187.176          49.000    21596053.258 7
  88432224.305 7       145.844          46.000    21596050.438 8  84747538.371 8
       139.801          48.000  
 24 12 03 02 25 30.0000000  0  7G10G21G23G25G28G31G32
  20510156.125 8 107781596.207 8      -721.047          50.000    20510158.945 7
  83985673.430 7      -561.824          47.000    20510156.008 8  80486255.785 8
      -538.465          51.000  
  24378916.250 6 128112064.426 6       -60.023          40.000    24378919.258 5
  99827594.824 5       -46.813          35.000                                  
                                
  22797739.680 7 119802923.758 7     -3072.816          43.000    22797746.664 6
  93352953.910 6     -2394.406          40.000                                  
                                
  21634747.648 7 113691367.145 7        -2.770          44.000    21634753.180 7
  88590706.531 7        -2.141          44.000    21634752.227 7  84899414.082 7
        -2.063          47.000  
  20753595.539 7 109060881.926 7       447.613          46.000    20753597.313 7
  84982509.988 7       348.781          45.000    20753599.117 8  81441579.977 8
       334.289          51.000  
  21915834.141 7 115168488.281 7      2384.758          45.000    21915836.594 7
  89741686.047 7      1858.348          45.000                                  
                                
  21595872.477 8 113487073.867 8       187.332          49.000    21595875.133 7
  88431494.879 7       146.004          46.000    21595872.320 8  84746839.348 8
       139.883          48.000  
 24 12 03 02 25 35.0000000  0  7G10G21G23G25G28G31G32
  20510843.578 8 107785208.766 8      -724.480          51.000    20510846.398 7
  83988488.402 7      -564.574          47.000    20510843.461 8  80488953.453 8
      -541.000          51.000  
  24378974.477 6 128112370.355 6       -62.723          40.000    24378977.500 5
  99827833.184 5       -48.891          35.000                                  
                                
  22800664.109 7 119818291.645 7     -3074.910          43.000    22800671.133 6
  93364928.840 6     -2396.035          40.000                                  
                                
  21634751.828 7 113691389.137 7        -6.602          44.000    21634757.391 7
  88590723.660 7        -5.105          44.000    21634756.422 7  84899430.492 7
        -4.898          47.000  
  20753170.758 7 109058649.684 7       444.785          46.000    20753172.547 7
  84980770.586 7       346.578          45.000    20753174.344 8  81439913.043 8
       332.141          51.000  
  21913566.055 7 115156569.379 7      2382.207          45.000    21913568.484 7
  89732398.605 7      1856.332          45.000                                  
                                
  21595694.383 8 113486137.988 8       186.461          49.000    21595697.055 7
  88430765.629 7       145.211          46.000    21595694.234 8  84746140.469 8
       139.234          48.000  
 24 12 03 02 25 40.0000000  0  7G10G21G23G25G28G31G32
  20511534.305 8 107788838.551 8      -727.219          51.000    20511537.125 7
  83991316.785 7      -566.676          47.000    20511534.188 8  80491663.988 8
      -543.051          51.000  
  24379035.195 6 128112689.453 6       -64.797          40.000    24379038.234 5
  99828081.813 5       -50.523          35.000                                  
                                
  22803590.602 7 119833670.371 7     -3076.430          44.000    22803597.648 6
  93376912.195 6     -2397.223          40.000                                  
                                
  21634759.641 7 113691430.191 7        -9.633          44.000    21634765.250 7
  88590755.656 7        -7.508          44.000    21634764.242 7  84899461.152 7
        -7.117          47.000  
  20752748.680 7 109056431.672 7       442.680          46.000    20752750.477 7
  84979042.266 7       344.926          45.000    20752752.273 8  81438256.738 8
       330.543          51.000  
  21911300.430 7 115144663.410 7      2380.344          45.000    21911302.836 7
  89723121.223 7      1854.855          45.000                                  
                                
  21595517.125 8 113485206.559 8       186.355          49.000    21595519.820 7
  88430039.828 7       145.180          46.000    21595516.992 8  84745444.914 8
       139.164          48.000  
 24 12 03 02 25 45.0000000  0  7G10G21G23G25G28G31G32
  20512228.023 8 107792484.012 8      -730.609          51.000    20512230.828 7
  83994157.391 7      -569.324          47.000    20512227.906 8  80494386.230 8
      -545.570          51.000  
  24379098.125 6 128113020.184 6       -67.211          40.000    24379101.180 5
  99828339.484 5       -52.355          35.000                                  
                                
  22806518.859 7 119849058.410 7     -3078.465          43.000    22806525.938 6
  93388902.809 6     -2398.809          40.000                                  
                                
  21634770.797 7 113691488.844 7       -13.527          44.000    21634776.445 7
  88590801.355 7       -10.480          44.000    21634775.414 8  84899504.949 8
       -10.000          48.000  
  20752329.023 7 109054226.375 7       439.852          46.000    20752330.828 7
  84977323.832 7       342.738          45.000    20752332.672 8  81436609.922 8
       328.488          51.000  
  21909036.977 7 115132768.867 7      2377.836          45.000    21909039.352 7
  89713852.754 7      1852.844          45.000                                  
                                
  21595340.438 8 113484278.082 8       185.488          49.000    21595343.148 7
  88429316.332 7       144.523          46.000    21595340.320 8  84744751.563 8
       138.520          48.000  
 24 12 03 02 25 50.0000000  0  7G10G21G23G25G28G31G32
  20512924.875 8 107796145.629 8      -733.941          51.000    20512927.617 7
  83997010.586 7      -571.906          47.000    20512924.789 8  80497120.543 8
      -548.121          51.000  
  24379163.461 6 128113363.078 6       -69.875          40.000    24379166.555 5
  99828606.699 5       -54.430          35.000                                  
                                
  22809449.211 7 119864456.207 7     -3080.621          43.000    22809456.703 6
  93400901.051 6     -2400.484          40.000                                  
                                
  21634785.305 7 113691565.504 7       -17.160          44.000    21634791.211 7
  88590861.094 7       -13.391          44.000    21634790.117 8  84899562.203 8
       -12.828          48.000  
  20751911.781 7 109052034.234 7       437.137          46.000    20751913.813 7
  84975615.695 7       340.598          45.000    20751915.523 8  81434972.941 8
       326.422          51.000  
  21906775.844 7 115120886.172 7      2375.371          45.000    21906778.008 7
  89704593.527 7      1850.910          45.000                                  
                                
  21595164.367 8 113483352.984 8       184.629          49.000    21595167.180 7
  88428595.473 7       143.859          46.000    21595164.367 8  84744060.738 8
       137.871          48.000  
 24 12 03 02 25 55.0000000  0  7G10G21G23G25G28G31G32
  20513623.961 8 107799819.305 8      -736.188          51.000    20513626.711 7
  83999873.176 7      -573.664          47.000    20513623.875 8  80499863.848 8
      -549.770          51.000  
  24379230.219 6 128113713.930 6       -71.301          41.000    24379233.328 5
  99828880.020 5       -55.547          35.000                                  
                                
  22812380.398 7 119879859.648 7     -3081.621          43.000    22812387.914 6
  93412903.656 6     -2401.266          40.000                                  
                                
  21634802.563 7 113691656.137 7       -19.730          44.000    21634808.500 7
  88590931.715 7       -15.398          44.000    21634807.367 8  84899629.879 8
       -14.711          48.000  
  20751496.375 7 109049851.164 7       435.465          47.000    20751498.391 7
  84973914.582 7       339.324          45.000    20751500.094 8  81433342.719 8
       325.180          51.000  
  21904516.133 7 115109011.254 7      2374.031          45.000    21904518.266 7
  89695340.340 7      1849.852          45.000                                  
                                
  21594988.188 8 113482427.188 8       185.031          49.000    21594991.023 7
  88427874.070 7       144.133          46.000    21594988.195 8  84743369.387 8
       138.203          48.000  
 24 12 03 02 26  0.0000000  0  7G10G21G23G25G28G31G32
  20514326.109 8 107803509.051 8      -739.617          51.000    20514328.859 7
  84002748.285 7      -576.332          47.000    20514326.023 8  80502619.160 8
      -552.316          51.000  
  24379299.266 6 128114076.777 6       -73.754          41.000    24379302.422 5
  99829162.773 5       -57.504          35.000                                  
                                
  22815313.414 7 119895272.742 7     -3083.695          43.000    22815320.961 6
  93424913.813 6     -2402.883          40.000                                  
                                
  21634823.227 7 113691764.723 7       -23.617          44.000    21634829.195 7
  88591016.316 7       -18.313          44.000    21634828.039 8  84899710.973 8
       -17.605          48.000  
  20751083.445 7 109047681.168 7       432.625          47.000    20751085.445 7
  84972223.672 7       337.105          45.000    20751087.164 8  81431722.266 8
       323.090          51.000  
  21902258.664 7 115097148.141 7      2371.367          45.000    21902260.742 7
  89686096.363 7      1847.805          44.000                                  
                                
  21594812.648 8 113481504.730 8       184.074          49.000    21594815.492 7
  88427155.266 7       143.406          46.000    21594812.672 8  84742680.535 8
       137.492          48.000  
 24 12 03 02 26  5.0000000  0  7G10G21G23G25G28G31G32
  20515031.469 8 107807215.660 8      -742.770          51.000    20515034.219 7
  84005636.539 7      -578.750          47.000    20515031.375 8  80505387.066 8
      -554.617          51.000  
  24379370.758 6 128114452.438 6       -76.152          41.000    24379373.945 5
  99829455.445 5       -59.352          35.000                                  
                                
  22818248.406 7 119910696.250 7     -3085.348          43.000    22818255.992 6
  93436932.070 6     -2404.172          40.000                                  
                                
  21634847.445 7 113691892.047 7       -27.145          44.000    21634853.453 7
  88591115.523 7       -21.035          44.000    21634852.273 7  84899806.043 7
       -20.199          47.000  
  20750673.156 7 109045525.020 7       430.059          47.000    20750675.141 7
  84970543.551 7       335.133          45.000    20750676.859 8  81430112.152 8
       321.180          51.000  
  21900003.586 7 115085297.617 7      2369.102          45.000    21900005.609 7
  89676862.203 7      1845.996          45.000                                  
                                
  21594637.883 8 113480586.371 8       183.504          49.000    21594640.727 7
  88426439.645 7       143.039          46.000    21594637.914 8  84741994.746 8
       137.047          48.000  
 24 12 03 02 26 10.0000000  0  7G10G21G23G25G28G31G32
  20515739.227 8 107810934.891 8      -744.441          51.000    20515741.984 7
  84008534.633 7      -580.082          47.000    20515739.141 8  80508164.398 8
      -555.898          51.000  
  24379443.883 6 128114836.680 6       -77.000          41.000    24379447.125 5
  99829754.855 5       -60.004          35.000                                  
                                
  22821184.586 7 119926125.980 7     -3085.813          43.000    22821192.203 6
  93448955.172 6     -2404.535          40.000                                  
                                
  21634874.438 7 113692033.883 7       -29.234          44.000    21634880.461 7
  88591226.047 7       -22.719          44.000    21634879.266 8  84899911.953 8
       -21.773          48.000  
  20750264.695 7 109043378.469 7       428.973          47.000    20750266.656 7
  84968870.926 7       334.285          45.000    20750268.383 8  81428509.207 8
       320.363          51.000  
  21897750.102 7 115073455.480 7      2368.270          45.000    21897752.055 7
  89667634.547 7      1845.484          45.000                                  
                                
  21594463.094 8 113479667.867 8       184.375          49.000    21594465.922 7
  88425723.926 7       143.715          46.000    21594463.141 8  84741308.836 8
       137.723          48.000  
 24 12 03 02 26 15.0000000  0  7G10G21G23G25G28G31G32
  20516449.273 8 107814666.145 8      -748.129          51.000    20516452.031 7
  84011442.082 7      -582.957          47.000    20516449.188 8  80510950.707 8
      -558.668          51.000  
  24379518.531 6 128115228.934 6       -79.930          41.000    24379521.805 5
  99830060.480 5       -62.246          35.000                                  
                                
  22824121.820 7 119941561.281 7     -3088.445          43.000    22824129.477 6
  93460982.629 6     -2406.586          40.000                                  
                                
  21634904.055 7 113692189.598 7       -33.195          44.000    21634910.109 7
  88591347.398 7       -25.898          44.000    21634908.914 8  84900028.254 8
       -24.836          48.000  
  20749857.938 7 109041240.926 7       425.852          47.000    20749859.898 7
  84967205.313 7       331.844          45.000    20749861.617 8  81426912.992 8
       318.043          51.000  
  21895498.086 7 115061621.066 7      2365.398          45.000    21895500.008 7
  89658412.953 7      1843.141          45.000                                  
                                
  21594288.164 8 113478748.641 8       183.230          49.000    21594291.000 7
  88425007.648 7       142.727          46.000    21594288.227 8  84740622.406 8
       136.805          48.000  
 24 12 03 02 26 20.0000000  0  7G10G21G23G25G28G31G32
  20517162.727 8 107818415.293 8      -751.230          51.000    20517165.477 7
  84014363.480 7      -585.352          47.000    20517162.633 8  80513750.383 8
      -561.016          51.000  
  24379595.813 6 128115635.000 6       -82.129          41.000    24379599.102 5
  99830376.867 5       -63.949          35.000                                  
                                
  22827061.234 7 119957008.016 7     -3090.039          43.000    22827068.922 6
  93473018.965 6     -2407.820          40.000                                  
                                
  21634937.461 7 113692365.145 7       -36.688          44.000    21634943.523 7
  88591484.180 7       -28.602          44.000    21634942.320 8  84900159.328 8
       -27.379          48.000  
  20749454.008 7 109039118.266 7       423.418          47.000    20749455.953 7
  84965551.270 7       329.973          45.000    20749457.688 8  81425327.887 8
       316.207          51.000  
  21893248.672 7 115049800.309 7      2363.168          45.000    21893250.547 7
  89649201.969 7      1841.453          45.000                                  
                                
  21594114.219 8 113477834.578 8       182.648          49.000    21594117.055 7
  88424295.375 7       142.340          46.000    21594114.289 8  84739939.805 8
       136.449          48.000  
 24 12 03 02 26 25.0000000  0  7G10G21G23G25G28G31G32
  20517879.516 8 107822182.016 8      -754.980          51.000    20517882.266 7
  84017298.578 7      -588.285          47.000    20517879.430 8  80516563.172 8
      -563.809          51.000  
  24379675.656 6 128116054.531 6       -85.070          41.000    24379678.969 5
  99830703.773 5       -66.270          35.000                                  
                                
  22830002.758 7 119972465.852 7     -3092.523          43.000    22830010.484 6
  93485063.984 6     -2409.762          40.000                                  
                                
  21634974.563 7 113692560.160 7       -40.902          44.000    21634980.641 7
  88591636.133 7       -31.785          44.000    21634979.438 7  84900304.953 7
       -30.488          47.000  
  20749052.852 7 109037010.156 7       420.297          46.000    20749054.797 7
  84963908.594 7       327.496          45.000    20749056.523 8  81423753.645 8
       313.859          51.000  
  21891001.789 7 115037992.891 7      2360.316          45.000    21891003.648 7
  89640001.387 7      1839.223          45.000                                  
                                
  21593941.180 8 113476925.316 8       181.566          49.000    21593944.023 7
  88423586.852 7       141.496          46.000    21593941.266 8  84739260.805 8
       135.621          48.000  
 24 12 03 02 26 30.0000000  0  7G10G21G23G25G28G31G32
  20518598.445 8 107825959.938 8      -756.973          51.000    20518601.180 7
  84020242.395 7      -589.883          47.000    20518598.352 8  80519384.328 8
      -565.270          51.000  
  24379756.859 6 128116481.160 6       -86.406          41.000    24379760.180 5
  99831036.219 5       -67.336          35.000                                  
                                
  22832945.180 7 119987928.422 7     -3093.418          43.000    22832952.945 6
  93497112.695 6     -2410.465          40.000                                  
                                
  21635014.148 7 113692768.234 7       -43.301          44.000    21635020.227 7
  88591798.270 7       -33.715          44.000    21635019.039 7  84900460.340 7
       -32.352          47.000  
  20748653.234 7 109034910.191 7       418.891          46.000    20748655.180 7
  84962272.270 7       326.344          45.000    20748656.914 8  81422185.484 8
       312.809          51.000  
  21888756.227 7 115026192.402 7      2359.078          45.000    21888758.078 7
  89630806.207 7      1838.301          45.000                                  
                                
  21593767.859 8 113476014.512 8       181.949          49.000    21593770.703 7
  88422877.125 7       141.758          46.000    21593767.953 8  84738580.648 8
       135.934          48.000  
 24 12 03 02 26 35.0000000  0  7G10G21G23G25G28G31G32
  20519319.984 8 107829751.578 8      -759.930          51.000    20519322.703 7
  84023196.902 7      -592.133          47.000    20519319.891 8  80522215.734 8
      -567.461          51.000  
  24379839.883 6 128116917.359 6       -88.379          41.000    24379843.195 5
  99831376.043 5       -68.828          35.000                                  
                                
  22835888.984 7 120003398.211 7     -3094.922          43.000    22835896.766 6
  93509166.996 6     -2411.633          40.000                                  
                                
  21635056.703 7 113692991.941 7       -46.539          44.000    21635062.781 7
  88591972.594 7       -36.297          44.000    21635061.617 7  84900627.395 7
       -34.797          47.000  
  20748255.656 7 109032820.914 7       416.570          47.000    20748257.594 7
  84960644.238 7       324.613          45.000    20748259.336 8  81420625.309 8
       311.066          51.000  
  21886512.469 7 115014401.387 7      2357.055          45.000    21886514.297 7
  89621618.426 7      1836.664          45.000                                  
                                
  21593594.719 8 113475104.676 8       181.645          49.000    21593597.578 7
  88422168.148 7       141.602          46.000    21593594.820 8  84737901.219 8
       135.691          48.000  
 24 12 03 02 26 40.0000000  0  7G10G21G23G25G28G31G32
  20520044.695 8 107833559.348 8      -763.164          50.000    20520047.422 7
  84026163.988 7      -594.676          47.000    20520044.656 8  80525059.184 8
      -569.883          51.000  
  24379925.281 6 128117365.602 6       -90.902          41.000    24379928.852 5
  99831725.348 5       -70.789          35.000                                  
                                
  22838834.641 7 120018877.617 7     -3096.781          43.000    22838842.898 6
  93521228.813 6     -2413.086          40.000                                  
                                
  21635102.656 7 113693233.664 7       -50.211          44.000    21635108.922 7
  88592160.949 7       -39.211          44.000    21635107.680 7  84900807.902 7
       -37.488          47.000  
  20747860.625 7 109030744.715 7       413.906          46.000    20747862.469 7
  84959026.418 7       322.535          45.000    20747864.242 8  81419074.898 8
       309.109          51.000  
  21884270.992 7 115002622.246 7      2354.629          45.000    21884272.398 7
  89612439.875 7      1834.809          45.000                                  
                                
  21593422.172 8 113474198.219 8       180.949          49.000    21593425.172 7
  88421461.820 7       140.969          46.000    21593422.422 8  84737224.313 8
       135.152          48.000  
 24 12 03 02 26 45.0000000  0  7G10G21G23G25G28G31G32
  20520772.242 8 107837382.613 8      -766.199          50.000    20520774.953 7
  84029143.141 7      -597.090          47.000    20520772.203 8  80527914.203 8
      -572.188          51.000  
  24380012.781 6 128117825.227 6       -93.098          41.000    24380016.320 5
  99832083.461 5       -72.504          35.000                                  
                                
  22841782.008 7 120034366.035 7     -3098.621          43.000    22841790.250 6
  93533297.641 6     -2414.516          40.000                                  
                                
  21635151.953 7 113693492.793 7       -53.664          44.000    21635158.219 7
  88592362.855 7       -41.762          44.000    21635156.992 7  84901001.398 7
       -40.031          47.000  
  20747467.906 7 109028680.957 7       411.477          46.000    20747469.742 7
  84957418.281 7       320.629          45.000    20747471.523 8  81417533.773 8
       307.238          51.000  
  21882031.641 7 114990854.344 7      2352.422          45.000    21882033.023 7
  89603270.074 7      1833.148          44.000                                  
                                
  21593250.195 8 113473294.504 8       180.469          49.000    21593253.250 7
  88420757.613 7       140.645          46.000    21593250.461 8  84736549.453 8
       134.781          48.000  
 24 12 03 02 26 50.0000000  0  7G10G21G23G25G28G31G32
  20521503.172 8 107841223.695 8      -770.078          50.000    20521505.875 7
  84032136.172 7      -600.102          47.000    20521503.148 8  80530782.520 8
      -575.043          51.000  
  24380102.891 6 128118298.566 6       -96.184          41.000    24380106.406 5
  99832452.289 5       -74.938          35.000                                  
                                
  22844731.516 7 120049865.738 7     -3101.164          43.000    22844739.766 6
  93545375.277 6     -2416.492          40.000                                  
                                
  21635205.000 7 113693771.602 7       -57.832          44.000    21635211.250 7
  88592580.113 7       -45.047          43.000    21635210.047 7  84901209.605 7
       -43.176          47.000  
  20747077.984 7 109026631.941 7       408.227          46.000    20747079.828 7
  84955821.656 7       318.117          45.000    20747081.609 8  81416003.664 8
       304.863          51.000  
  21879794.875 7 114979100.004 7      2349.488          45.000    21879796.227 7
  89594110.867 7      1830.750          44.000                                  
                                
  21593079.180 8 113472395.848 8       179.152          48.000    21593082.297 7
  88420057.352 7       139.664          46.000    21593079.461 8  84735878.375 8
       133.770          48.000  
 24 12 03 02 26 55.0000000  0  7G10G21G23G25G28G31G32
  20522236.281 8 107845076.242 8      -771.859          50.000    20522238.977 7
  84035138.141 7      -601.473          47.000    20522236.266 8  80533659.406 8
      -576.383          51.000  
  24380194.398 6 128118779.293 6       -96.988          41.000    24380197.898 6
  99832826.867 6       -75.598          36.000                                  
                                
  22847681.977 7 120065370.402 7     -3101.617          43.000    22847690.219 6
  93557456.797 6     -2416.848          40.000                                  
                                
  21635260.602 7 113694063.805 7       -59.941          44.000    21635266.828 7
  88592807.809 7       -46.762          43.000    21635265.656 7  84901427.809 7
       -44.754          47.000  
  20746689.680 7 109024591.359 7       407.117          46.000    20746691.523 7
  84954231.598 7       317.219          45.000    20746693.297 8  81414479.852 8
       303.996          51.000  
  21877559.500 7 114967352.941 7      2348.512          45.000    21877560.828 7
  89584957.313 7      1830.031          44.000                                  
                                
  21592907.930 8 113471495.949 8       179.949          48.000    21592911.102 7
  88419356.133 7       140.184          46.000    21592908.234 8  84735206.367 8
       134.316          48.000  
 24 12 03 02 27  0.0000000  0  7G10G21G23G25G28G31G32
  20522971.859 8 107848941.762 8      -774.402          50.000    20522974.547 7
  84038150.219 7      -603.465          47.000    20522971.859 8  80536545.977 8
      -578.273          51.000  
  24380287.594 6 128119268.902 6       -98.867          41.000    24380291.094 6
  99833208.363 6       -77.031          36.000                                  
                                
  22850633.664 7 120080881.496 7     -3102.879          43.000    22850641.891 6
  93569543.293 6     -2417.828          40.000                                  
                                
  21635319.023 7 113694370.875 7       -62.918          44.000    21635325.227 7
  88593047.090 7       -49.063          43.000    21635324.086 7  84901657.117 7
       -46.980          47.000  
  20746303.250 7 109022560.660 7       405.160          47.000    20746305.102 7
  84952649.234 7       315.723          45.000    20746306.867 8  81412963.418 8
       302.539          51.000  
  21875325.766 7 114955614.551 7      2346.813          45.000    21875327.078 7
  89575810.531 7      1828.648          44.000                                  
                                
  21592736.711 8 113470596.246 8       179.887          49.000    21592739.922 7
  88418655.051 7       140.176          46.000    21592737.039 8  84734534.496 8
       134.348          48.000  
 24 12 03 02 27  5.0000000  0  7G10G21G23G25G28G31G32
  20523710.438 8 107852823.047 8      -777.633          50.000    20523713.117 7
  84041174.578 7      -605.898          47.000    20523710.445 8  80539444.328 8
      -580.715          51.000  
  24380382.984 6 128119770.102 6      -101.145          41.000    24380386.500 6
  99833598.887 6       -78.820          36.000                                  
                                
  22853587.094 7 120096401.797 7     -3104.777          43.000    22853595.313 6
  93581636.980 6     -2419.309          40.000    22853598.648 7  89682428.38717
     -2318.523          45.000  
  21635380.820 7 113694695.609 7       -66.617          44.000    21635386.977 7
  88593300.121 7       -51.871          43.000    21635385.883 8  84901899.605 8
       -49.652          48.000  
  20745919.242 7 109020542.648 7       402.484          47.000    20745921.086 7
  84951076.750 7       313.633          45.000    20745922.852 8  81411456.461 8
       300.578          51.000  
  21873094.227 7 114943887.688 7      2344.477          45.000    21873095.516 7
  89566672.727 7      1826.828          44.000                                  
                                
  21592566.078 8 113469699.574 8       179.152          49.000    21592569.328 7
  88417956.336 7       139.613          46.000    21592566.422 8  84733864.895 8
       133.797          49.000  
 24 12 03 02 27 10.0000000  0  7G10G21G23G25G28G31G32
  20524452.070 8 107856720.441 8      -781.227          50.000    20524454.750 7
  84044211.488 7      -608.703          47.000    20524452.102 8  80542354.695 8
      -583.348          51.000  
  24380480.648 6 128120283.316 6      -103.934          41.000    24380484.180 6
  99833998.758 6       -80.992          36.000                                  
                                
  22856542.336 7 120111931.652 7     -3106.980          43.000    22856550.555 6
  93593738.086 6     -2421.027          40.000    22856553.875 7  89694025.281 7
     -2320.109          46.000  
  21635446.047 7 113695038.324 7       -70.434          44.000    21635452.141 7
  88593567.180 7       -54.941          43.000    21635451.102 8  84902155.539 8
       -52.633          48.000  
  20745537.719 7 109018537.672 7       399.543          47.000    20745539.547 7
  84949514.410 7       311.348          45.000    20745541.313 8  81409959.230 8
       298.387          51.000  
  21870864.945 7 114932172.715 7      2341.688          45.000    21870866.211 7
  89557544.180 7      1824.695          44.000                                  
                                
  21592396.078 8 113468806.258 8       178.168          49.000    21592399.352 7
  88417260.230 7       138.879          46.000    21592396.445 8  84733197.797 8
       133.031          49.000  
 24 12 03 02 27 15.0000000  0  7G10G21G23G25G28G31G32
  20525197.031 8 107860635.285 8      -784.828          51.000    20525199.711 7
  84047262.020 7      -611.578          47.000    20525197.070 8  80545278.109 8
      -586.090          51.000  
  24380580.836 6 128120809.828 6      -106.723          41.000    24380584.406 6
  99834409.023 6       -83.195          36.000                                  
                                
  22859499.656 7 120127472.406 7     -3109.332          43.000    22859507.891 6
  93605847.738 6     -2422.859          40.000    22859511.148 7  89705630.324 7
     -2321.883          46.000  
  21635514.961 7 113695400.461 7       -74.457          44.000    21635521.000 7
  88593849.352 7       -58.055          43.000    21635520.008 7  84902425.957 7
       -55.617          47.000  
  20745158.930 7 109016547.063 7       396.563          47.000    20745160.758 7
  84947963.301 7       309.000          45.000    20745162.508 8  81408472.738 8
       296.133          51.000  
  21868638.188 7 114920470.969 7      2338.898          45.000    21868639.445 7
  89548425.949 7      1822.535          44.000                                  
                                
  21592226.977 8 113467917.660 8       177.172          49.000    21592230.281 7
  88416567.816 7       138.004          46.000    21592227.367 8  84732534.227 8
       132.238          49.000  
 24 12 03 02 27 20.0000000  0  7G10G21G23G25G28G31G32
  20525944.969 8 107864565.805 8      -787.523          50.000    20525947.641 7
  84050324.746 7      -613.719          47.000    20525945.031 8  80548213.223 8
      -588.094          51.000  
  24380683.211 6 128121347.867 6      -108.660          40.000    24380686.813 6
  99834828.273 6       -84.652          36.000                                  
                                
  22862458.711 7 120143022.266 7     -3110.781          43.000    22862466.945 6
  93617964.438 6     -2423.988          40.000    22862470.195 7  89717242.160 7
     -2322.941          45.000  
  21635587.211 7 113695780.133 7       -77.563          44.000    21635593.211 7
  88594145.195 7       -60.465          43.000    21635592.258 7  84902709.480 7
       -57.969          47.000  
  20744782.531 7 109014569.043 7       394.473          47.000    20744784.352 7
  84946421.992 7       307.363          45.000    20744786.102 8  81406995.637 8
       294.582          51.000  
  21866413.602 7 114908780.691 7      2337.012          45.000    21866414.883 7
  89539316.660 7      1821.000          45.000                                  
                                
  21592058.438 8 113467032.004 8       176.953          49.000    21592061.750 7
  88415877.676 7       137.957          46.000    21592058.844 8  84731872.852 8
       132.117          48.000  
 24 12 03 02 27 25.0000000  0  7G10G21G23G25G28G31G32
  20526695.781 8 107868511.371 8      -790.785          51.000    20526698.438 7
  84053399.184 7      -616.109          47.000    20526695.852 8  80551159.566 8
      -590.527          51.000  
  24380787.656 6 128121896.777 6      -110.918          41.000    24380791.266 6
  99835255.949 6       -86.457          36.000                                  
                                
  22865419.367 7 120158580.574 7     -3112.598          43.000    22865427.609 6
  93630087.738 6     -2425.406          40.000    22865430.852 7  89728860.305 7
     -2324.363          45.000  
  21635662.680 7 113696176.754 7       -81.090          44.000    21635668.664 7
  88594454.246 7       -63.133          43.000    21635667.734 7  84903005.652 7
       -60.566          47.000  
  20744408.398 7 109012602.957 7       391.949          47.000    20744410.219 7
  84944889.965 7       305.406          45.000    20744411.953 8  81405527.453 8
       292.664          51.000  
  21864191.070 7 114897101.180 7      2334.805          45.000    21864192.352 7
  89530215.746 7      1819.289          44.000                                  
                                
  21591890.344 8 113466148.633 8       176.367          49.000    21591893.672 7
  88415189.332 7       137.434          46.000    21591890.758 8  84731213.180 8
       131.688          48.000  
 24 12 03 02 27 30.0000000  0  7G10G21G23G25G28G31G32
  20527449.461 8 107872472.328 8      -793.922          51.000    20527452.078 7
  84056485.652 7      -618.633          47.000    20527449.695 8  80554117.418 8
      -592.867          51.000  
  24380894.367 6 128122456.941 6      -113.355          41.000    24380898.078 6
  99835692.422 6       -88.352          36.000                                  
                                
  22868381.852 7 120174147.664 7     -3114.402          43.000    22868390.227 6
  93642217.871 6     -2426.809          40.000    22868393.180 7  89740485.020 7
     -2325.719          45.000  
  21635741.398 7 113696590.688 7       -84.648          44.000    21635747.078 7
  88594776.789 7       -65.941          43.000    21635746.516 7  84903314.758 7
       -63.242          47.000  
  20744036.648 7 109010649.168 7       389.328          47.000    20744038.438 7
  84943367.523 7       303.367          45.000    20744040.156 8  81404068.453 8
       290.754          51.000  
  21861970.734 7 114885432.848 7      2332.383          45.000    21861971.875 7
  89521123.547 7      1817.414          45.000                                  
                                
  21591722.719 8 113465267.922 8       175.715          49.000    21591726.430 7
  88414503.059 7       136.969          46.000    21591723.328 8  84730555.500 8
       131.199          48.000  
 24 12 03 02 27 35.0000000  0  7G10G21G23G25G28G31G32
  20528204.945 8 107876442.410 8      -795.195          51.000    20528207.570 7
  84059579.195 7      -619.613          47.000    20528205.180 8  80557082.070 8
      -593.816          51.000  
  24381001.883 6 128123022.090 6      -113.770          41.000    24381005.602 6
  99836132.801 6       -88.715          36.000                                  
                                
  22871344.680 7 120189717.285 7     -3114.379          43.000    22871353.047 6
  93654350.004 6     -2426.793          40.000    22871355.977 7  89752111.609 7
     -2325.680          45.000  
  21635822.266 7 113697015.652 7       -86.387          44.000    21635827.930 7
  88595107.930 7       -67.297          43.000    21635827.391 7  84903632.094 7
       -64.488          47.000  
  20743666.008 7 109008701.387 7       388.664          47.000    20743667.797 7
  84941849.785 7       302.820          45.000    20743669.500 8  81402613.934 8
       290.266          51.000  
  21859751.258 7 114873769.406 7      2331.891          45.000    21859752.453 7
  89512035.152 7      1817.121          45.000                                  
                                
  21591554.453 8 113464383.605 8       176.926          49.000    21591558.156 7
  88413813.969 7       137.918          46.000    21591555.047 8  84729895.125 8
       132.094          48.000  
 24 12 03 02 27 40.0000000  0  7G10G21G23G25G28G31G32
  20528963.719 8 107880429.770 8      -798.887          50.000    20528966.367 7
  84062686.211 7      -622.453          47.000    20528963.953 8  80560059.617 8
      -596.523          51.000  
  24381111.891 6 128123600.336 6      -116.684          40.000    24381115.648 6
  99836583.359 6       -90.957          36.000                                  
                                
  22874309.531 7 120205297.555 7     -3116.746          43.000    22874317.891 6
  93666490.391 6     -2428.637          40.000    22874320.805 7  89763746.156 7
     -2327.465          45.000  
  21635906.773 7 113697459.793 7       -90.457          44.000    21635912.430 7
  88595454.012 7       -70.461          44.000    21635911.906 7  84903963.750 7
       -67.535          47.000  
  20743298.055 7 109006767.754 7       385.637          47.000    20743299.836 7
  84940343.039 7       300.527          45.000    20743301.539 8  81401169.988 8
       288.004          51.000  
  21857534.258 7 114862119.008 7      2329.113          45.000    21857535.508 7
  89502956.938 7      1814.914          45.000                                  
                                
  21591387.047 8 113463503.809 8       175.934          49.000    21591390.742 7
  88413128.418 7       137.020          46.000    21591387.633 8  84729238.125 8
       131.313          48.000  
 24 12 03 02 27 45.0000000  0  7G10G21G23G25G28G31G32
  20529725.586 8 107884433.395 8      -802.398          50.000    20529728.281 7
  84065805.906 7      -625.219          47.000    20529725.828 8  80563049.332 8
      -599.203          51.000  
  24381224.188 6 128124190.660 6      -119.395          40.000    24381227.977 6
  99837043.316 6       -92.996          36.000                                  
                                
  22877276.219 7 120220887.480 7     -3119.027          43.000    22877284.578 6
  93678638.340 6     -2430.418          40.000    22877287.469 7  89775387.910 7
     -2329.094          45.000  
  21635994.742 7 113697922.086 7       -94.246          44.000    21636000.398 7
  88595814.242 7       -73.426          44.000    21635999.891 7  84904308.977 7
       -70.457          47.000  
  20742932.602 7 109004847.293 7       382.695          47.000    20742934.383 7
  84938846.582 7       298.199          45.000    20742936.086 8  81399735.871 8
       285.797          51.000  
  21855319.555 7 114850480.656 7      2326.434          45.000    21855320.875 7
  89493888.113 7      1812.684          45.000                                  
                                
  21591220.313 8 113462627.566 8       174.805          49.000    21591224.008 7
  88412445.625 7       136.227          46.000    21591220.891 8  84728583.773 8
       130.563          48.000  
 24 12 03 02 27 50.0000000  0  7G10G21G23G25G28G31G32
  20530490.234 8 107888451.621 8      -805.063          50.000    20530492.969 7
  84068936.984 7      -627.289          47.000    20530490.484 8  80566049.941 8
      -601.199          51.000  
  24381338.477 6 128124791.414 6      -121.129          40.000    24381342.297 6
  99837511.453 6       -94.445          36.000                                  
                                
  22880244.422 7 120236485.375 7     -3120.379          43.000    22880252.773 6
  93690792.477 6     -2431.469          40.000    22880255.648 7  89787035.609 7
     -2330.078          45.000  
  21636085.875 7 113698400.926 7       -97.379          44.000    21636091.523 7
  88596187.348 7       -75.797          44.000    21636091.008 7  84904666.543 7
       -72.754          47.000  
  20742569.336 7 109002938.293 7       380.680          47.000    20742571.117 7
  84937359.059 7       296.621          45.000    20742572.805 8  81398310.316 8
       284.297          51.000  
  21853106.836 7 114838852.703 7      2324.594          45.000    21853108.203 7
  89484827.363 7      1811.387          45.000                                  
                                
  21591053.938 8 113461753.168 8       174.738          49.000    21591057.625 7
  88411764.266 7       136.172          47.000    21591054.500 8  84727930.809 8
       130.484          48.000  
 24 12 03 02 27 55.0000000  0  7G10G21G23G25G28G31G32
  20531257.781 8 107892485.074 8      -808.203          50.000    20531260.555 8
  84072079.926 8      -629.781          48.000    20531258.031 8  80569061.918 8
      -603.508          51.000  
  24381454.875 6 128125403.246 6      -123.391          40.000    24381458.719 6
  99837988.152 6       -96.172          36.000                                  
                                
  22883214.258 7 120252091.828 7     -3122.133          43.000    22883222.602 6
  93702953.289 6     -2432.832          40.000    22883225.461 7  89798689.719 7
     -2331.457          45.000  
  21636180.258 7 113698896.883 7      -100.855          44.000    21636185.906 7
  88596573.820 7       -78.520          44.000    21636185.391 7  84905036.898 7
       -75.285          47.000  
  20742208.375 7 109001041.391 7       378.152          46.000    20742210.148 7
  84935880.938 7       294.676          45.000    20742211.836 8  81396893.801 8
       282.398          51.000  
  21850896.211 7 114827235.773 7      2322.348          45.000    21850897.625 7
  89475775.230 7      1809.582          45.000                                  
                                
  21590888.039 8 113460881.262 8       174.156          49.000    21590891.719 7
  88411084.852 7       135.719          47.000    21590888.578 8  84727279.703 8
       130.043          48.000  
 24 12 03 02 28  0.0000000  0  7G10G21G23G25G28G31G32
  20532028.414 8 107896534.715 8      -811.398          50.000    20532031.219 8
  84075235.465 8      -632.266          48.000    20532028.664 8  80572085.984 8
      -605.898          51.000  
  24381573.555 6 128126027.047 6      -125.688          40.000    24381577.445 6
  99838474.219 6       -97.957          36.000                                  
                                
  22886185.914 7 120267707.824 7     -3124.000          43.000    22886194.242 6
  93715121.547 6     -2434.293          40.000    22886197.094 7  89810350.941 7
     -2332.785          45.000  
  21636278.094 7 113699410.934 7      -104.422          44.000    21636283.750 7
  88596974.375 7       -81.340          44.000    21636283.219 7  84905420.770 7
       -78.012          47.000  
  20741849.898 7 108999157.543 7       375.656          46.000    20741851.664 7
  84934413.000 7       292.711          45.000    20741853.344 8  81395487.023 8
       280.516          51.000  
  21848687.859 7 114815630.805 7      2319.961          45.000    21848689.328 7
  89466732.398 7      1807.809          45.000                                  
                                
  21590722.797 8 113460012.820 8       173.535          49.000    21590726.469 7
  88410408.133 7       135.219          47.000    21590723.313 8  84726631.176 8
       129.598          48.000  
 24 12 03 02 28  5.0000000  0  7G10G21G23G25G28G31G32
  20532802.094 8 107900600.383 8      -814.809          50.000    20532804.938 8
  84078403.508 8      -634.922          48.000    20532802.352 8  80575122.016 8
      -608.414          51.000  
  24381694.484 6 128126662.695 6      -128.461          40.000    24381698.422 6
  99838969.496 6      -100.105          36.000                                  
                                
  22889159.344 7 120283333.180 7     -3126.047          43.000    22889167.664 6
  93727297.094 6     -2435.883          39.000    22889170.508 7  89822019.164 7
     -2334.422          45.000  
  21636379.344 7 113699942.953 7      -108.320          44.000    21636385.039 7
  88597388.934 7       -84.406          44.000    21636384.461 7  84905818.043 7
       -80.832          47.000  
  20741493.867 7 108997286.586 7       372.816          46.000    20741495.633 7
  84932955.105 7       290.488          45.000    20741497.313 8  81394089.875 8
       278.387          51.000  
  21846481.758 7 114804037.672 7      2317.387          45.000    21846483.289 7
  89457698.801 7      1805.684          45.000                                  
                                
  21590558.180 8 113459147.672 8       172.625          49.000    21590561.836 7
  88409733.984 7       134.504          46.000    21590558.680 8  84725985.117 8
       128.891          48.000  
 24 12 03 02 28 10.0000000  0  7G10G21G23G25G28G31G32
  20533578.164 8 107904678.617 8      -816.910          50.000    20533581.047 8
  84081581.340 8      -636.531          48.000    20533578.430 8  80578167.434 8
      -610.008          51.000  
  24381817.000 6 128127306.691 6      -129.656          40.000    24381820.961 6
  99839471.285 6      -101.000          36.000                                  
                                
  22892133.891 7 120298964.445 7     -3126.754          43.000    22892142.211 6
  93739477.215 6     -2436.438          39.000    22892145.047 7  89833691.781 7
     -2334.891          45.000  
  21636483.352 7 113700489.445 7      -110.730          44.000    21636489.086 7
  88597814.777 7       -86.324          44.000    21636488.461 7  84906226.141 7
       -82.660          47.000  
  20741139.633 7 108995425.047 7       371.336          46.000    20741141.391 7
  84931504.547 7       289.359          45.000    20741143.063 8  81392699.762 8
       277.348          51.000  
  21844277.250 7 114792452.898 7      2316.152          45.000    21844278.836 7
  89448671.715 7      1804.777          45.000                                  
                                
  21590393.539 8 113458282.371 8       173.078          49.000    21590397.180 7
  88409059.711 7       134.918          46.000    21590394.008 8  84725338.938 8
       129.266          48.000  
 24 12 03 02 28 15.0000000  0  7G10G21G23G25G28G31G32
  20534356.516 8 107908768.809 8      -819.680          50.000    20534359.414 8
  84084768.480 8      -638.660          48.000    20534356.781 8  80581221.785 8
      -612.063          51.000  
  24381940.992 6 128127958.434 6      -131.473          40.000    24381944.961 6
  99839979.113 6      -102.430          36.000                                  
                                
  22895109.453 7 120314600.965 7     -3128.207          43.000    22895117.766 6
  93751661.480 6     -2437.566          39.000    22895120.594 7  89845368.340 7
     -2336.000          45.000  
  21636589.984 7 113701049.789 7      -113.789          44.000    21636595.750 7
  88598251.402 7       -88.688          44.000    21636595.094 7  84906644.570 7
       -84.977          47.000  
  20740787.078 7 108993572.309 7       369.266          47.000    20740788.828 7
  84930060.855 7       287.730          45.000    20740790.461 8  81391316.215 8
       275.766          51.000  
  21842074.219 7 114780875.891 7      2314.223          45.000    21842075.859 7
  89439650.676 7      1803.270          45.000                                  
                                
  21590228.742 8 113457416.281 8       172.941          49.000    21590232.367 7
  88408384.824 7       134.770          46.000    21590229.195 8  84724692.172 8
       129.121          48.000  
 24 12 03 02 28 20.0000000  0  7G10G21G23G25G28G31G32
  20535137.852 8 107912874.297 8      -823.027          50.000    20535141.063 8
  84087967.559 8      -641.297          48.000    20535138.195 8  80584287.555 8
      -614.566          51.000  
  24382066.813 6 128128621.297 6      -134.016          40.000    24382071.102 6
  99840495.598 6      -104.457          36.000                                  
                                
  22898086.906 7 120330246.098 7     -3130.207          43.000    22898095.281 6
  93763852.414 6     -2439.125          39.000    22898097.773 7  89857051.313 7
     -2337.504          45.000  
  21636699.953 7 113701627.344 7      -117.629          44.000    21636705.836 7
  88598701.430 7       -91.543          44.000    21636705.055 7  84907075.859 7
       -87.785          47.000  
  20740436.875 7 108991731.691 7       366.559          47.000    20740438.594 7
  84928626.613 7       285.637          45.000    20740440.203 8  81389941.730 8
       273.711          51.000  
  21839873.305 7 114769309.969 7      2311.652          45.000    21839875.516 7
  89430638.285 7      1801.320          46.000                                  
                                
  21590064.578 8 113456552.754 8       172.109          49.000    21590068.117 7
  88407711.953 7       134.059          46.000    21590064.875 8  84724047.332 8
       128.457          48.000  
 24 12 03 02 28 25.0000000  0  7G10G21G23G25G28G31G32
  20535922.305 8 107916996.508 8      -826.246          51.000    20535925.516 8
  84091179.652 8      -643.813          48.000    20535922.648 8  80587365.813 8
      -617.047          51.000  
  24382195.328 6 128129296.676 6      -136.512          40.000    24382199.609 6
  99841021.863 6      -106.363          36.000                                  
                                
  22901066.008 7 120345901.215 7     -3132.160          43.000    22901074.367 6
  93776051.156 6     -2440.652          39.000    22901076.867 7  89868741.770 7
     -2338.938          45.000  
  21636813.422 7 113702223.563 7      -121.211          44.000    21636819.359 7
  88599166.027 7       -94.539          44.000    21636818.508 7  84907521.090 7
       -90.566          47.000  
  20740089.203 7 108989904.652 7       363.879          47.000    20740090.914 7
  84927202.934 7       283.563          45.000    20740092.523 8  81388577.375 8
       271.742          51.000  
  21837674.773 7 114757756.586 7      2309.316          45.000    21837677.016 7
  89421635.656 7      1799.398          46.000                                  
                                
  21589901.039 8 113455693.246 8       171.324          49.000    21589904.539 7
  88407042.184 7       133.527          47.000    21589901.297 8  84723405.469 8
       127.965          48.000  
 24 12 03 02 28 30.0000000  0  7G10G21G23G25G28G31G32
  20536709.984 8 107921135.668 8      -829.582          51.000    20536713.195 8
  84094404.969 8      -646.477          48.000    20536710.328 8  80590456.730 8
      -619.484          51.000  
  24382326.289 6 128129984.797 6      -138.797          41.000    24382330.547 6
  99841558.047 6      -108.094          36.000                                  
                                
  22904047.055 7 120361566.617 7     -3134.055          43.000    22904055.414 6
  93788257.891 6     -2442.125          39.000    22904057.906 7  89880439.875 7
     -2340.344          45.000  
  21636930.484 7 113702838.652 7      -124.887          44.000    21636936.453 7
  88599645.324 7       -97.371          44.000    21636935.555 7  84907980.410 7
       -93.250          47.000  
  20739744.148 7 108988091.391 7       361.328          47.000    20739745.867 7
  84925789.996 7       281.605          45.000    20739747.477 8  81387223.316 8
       269.805          51.000  
  21835478.656 7 114746215.961 7      2306.930          45.000    21835480.938 7
  89412642.969 7      1797.574          46.000                                  
                                
  21589738.297 8 113454837.949 8       170.770          49.000    21589741.781 7
  88406375.730 7       132.980          46.000    21589738.531 8  84722766.777 8
       127.461          48.000  
 24 12 03 02 28 35.0000000  0  7G10G21G23G25G28G31G32
  20537500.477 8 107925289.602 8      -831.863          50.000    20537503.680 8
  84097641.773 8      -648.137          48.000    20537500.813 8  80593558.672 8
      -621.148          51.000  
  24382459.258 6 128130683.449 6      -140.379          41.000    24382463.453 6
  99842102.406 6      -109.387          36.000                                  
                                
  22907029.633 7 120377240.035 7     -3134.980          43.000    22907037.992 6
  93800470.891 6     -2442.848          39.000    22907040.484 7  89892143.988 7
     -2341.113          45.000  
  21637050.711 7 113703470.422 7      -127.664          44.000    21637056.695 7
  88600137.594 7       -99.406          44.000    21637055.766 7  84908452.172 7
       -95.207          47.000  
  20739401.297 7 108986289.727 7       359.563          47.000    20739403.023 7
  84924386.098 7       280.176          45.000    20739404.625 8  81385877.906 8
       268.520          51.000  
  21833284.547 7 114734685.895 7      2305.359          45.000    21833286.859 7
  89403658.512 7      1796.375          46.000                                  
                                
  21589575.953 8 113453984.707 8       170.891          49.000    21589579.414 7
  88405710.844 7       133.215          46.000    21589576.148 8  84722129.598 8
       127.656          48.000  
 24 12 03 02 28 40.0000000  0  7G10G21G23G25G28G31G32
  20538293.719 8 107929458.023 8      -834.965          51.000    20538296.922 8
  84100889.883 8      -650.645          48.000    20538294.055 8  80596671.434 8
      -623.512          51.000  
  24382594.180 6 128131392.324 6      -142.680          41.000    24382598.328 6
  99842654.770 6      -111.191          36.000                                  
                                
  22910013.680 7 120392921.230 7     -3136.883          43.000    22910022.039 6
  93812689.945 6     -2444.328          39.000    22910024.531 7  89903853.887 7
     -2342.500          45.000  
  21637174.055 7 113704118.602 7      -131.125          44.000    21637180.063 7
  88600642.664 7      -102.234          44.000    21637179.109 7  84908936.211 7
       -97.938          47.000  
  20739060.609 7 108984499.367 7       357.098          47.000    20739062.328 7
  84922991.016 7       278.223          45.000    20739063.930 8  81384540.941 8
       266.680          51.000  
  21831092.398 7 114723166.133 7      2303.008          45.000    21831094.727 7
  89394682.070 7      1794.551          45.000                                  
                                
  21589413.945 8 113453133.246 8       170.199          49.000    21589417.375 7
  88405047.359 7       132.605          46.000    21589414.109 8  84721493.750 8
       127.133          48.000  
 24 12 03 02 28 45.0000000  0  7G10G21G23G25G28G31G32
  20539089.914 8 107933641.969 8      -838.637          50.000    20539093.109 7
  84104150.094 7      -653.516          47.000    20539090.258 8  80599795.797 8
      -626.262          51.000  
  24382731.250 6 128132112.488 6      -145.555          41.000    24382735.367 6
  99843215.918 6      -113.438          36.000                                  
                                
  22912999.406 7 120408611.199 7     -3139.289          43.000    22913007.766 6
  93824915.840 6     -2446.199          39.000    22913010.586 7  89915570.355 7
     -2344.164          45.000  
  21637300.719 7 113704784.219 7      -135.063          44.000    21637306.742 7
  88601161.324 7      -105.289          44.000    21637305.766 7  84909433.258 7
      -100.898          47.000  
  20738722.258 7 108982721.336 7       354.098          47.000    20738723.984 7
  84921605.543 7       275.926          45.000    20738725.586 8  81383213.191 8
       264.445          51.000  
  21828902.406 7 114711657.719 7      2300.219          45.000    21828904.750 7
  89385714.488 7      1792.391          45.000                                  
                                
  21589252.469 8 113452284.555 8       169.148          49.000    21589255.859 7
  88404386.035 7       131.824          46.000    21589252.602 8  84720859.988 8
       126.320          48.000  
 24 12 03 02 28 50.0000000  0  7G10G21G23G25G28G31G32
  20539889.117 8 107937841.742 8      -841.582          50.000    20539892.297 7
  84107422.609 7      -655.730          47.000    20539889.453 8  80602931.965 8
      -628.457          51.000  
  24382870.508 6 128132844.172 6      -147.543          40.000    24382874.602 6
  99843786.043 6      -114.941          36.000                                  
                                
  22915986.852 7 120424310.246 7     -3140.781          42.000    22915995.203 6
  93837148.770 6     -2447.367          39.000    22915998.047 7  89927293.582 7
     -2345.395          45.000  
  21637430.766 7 113705467.586 7      -138.445          44.000    21637436.789 7
  88601693.805 7      -107.887          44.000    21637435.797 7  84909943.551 7
      -103.348          47.000  
  20738386.320 7 108980955.934 7       351.797          47.000    20738388.031 7
  84920229.879 7       274.152          45.000    20738389.648 8  81381894.875 8
       262.699          51.000  
  21826714.633 7 114700160.949 7      2298.176          45.000    21826716.992 7
  89376755.980 7      1790.762          45.000                                  
                                
  21589091.578 8 113451438.988 8       168.770          49.000    21589094.930 7
  88403727.133 7       131.543          46.000    21589091.680 8  84720228.535 8
       126.070          48.000  
 24 12 03 02 28 55.0000000  0  7G10G21G23G25G28G31G32
  20540691.297 8 107942057.180 8      -844.871          50.000    20540694.484 7
  84110707.359 7      -658.273          47.000    20540691.641 8  80606079.844 8
      -630.871          51.000  
  24383011.938 6 128133587.270 6      -149.934          40.000    24383016.008 6
  99844365.063 6      -116.797          36.000                                  
                                
  22918975.984 7 120440018.160 7     -3142.676          42.000    22918984.336 6
  93849388.660 6     -2448.844          39.000    22918987.195 7  89939023.453 7
     -2346.719          45.000  
  21637564.148 7 113706168.547 7      -142.078          44.000    21637570.180 7
  88602240.004 7      -110.695          44.000    21637569.172 7  84910466.992 7
      -106.070          47.000  
  20738052.758 7 108979203.012 7       349.086          47.000    20738054.469 7
  84918863.957 7       272.059          45.000    20738056.078 8  81380585.863 8
       260.734          51.000  
  21824529.047 7 114688675.699 7      2295.750          45.000    21824531.414 7
  89367806.434 7      1788.930          45.000                                  
                                
  21588931.250 8 113450596.359 8       168.094          49.000    21588934.563 7
  88403070.547 7       130.988          46.000    21588931.328 8  84719599.301 8
       125.539          48.000  
 24 12 03 02 29  0.0000000  0  7G10G21G23G25G28G31G32
  20541496.625 8 107946289.176 8      -847.949          50.000    20541499.820 7
  84114005.004 7      -660.668          47.000    20541496.969 8  80609240.086 8
      -633.156          51.000  
  24383155.711 6 128134342.684 6      -152.234          41.000    24383159.773 6
  99844953.680 6      -118.641          36.000                                  
                                
  22921966.977 7 120455735.910 7     -3144.457          42.000    22921975.328 6
  93861636.176 6     -2450.234          39.000    22921978.211 7  89950760.641 7
     -2347.965          45.000  
  21637701.055 7 113706887.996 7      -145.594          44.000    21637707.078 7
  88602800.621 7      -113.512          44.000    21637706.070 7  84911004.238 7
      -108.684          47.000  
  20737721.734 7 108977463.441 7       346.660          47.000    20737723.445 7
  84917508.449 7       270.125          45.000    20737725.055 8  81379286.828 8
       258.945          51.000  
  21822345.820 7 114677202.824 7      2293.480          45.000    21822348.188 7
  89358866.547 7      1787.148          45.000                                  
                                
  21588771.641 8 113449757.582 8       167.539          49.000    21588774.922 7
  88402416.938 7       130.621          46.000    21588771.703 8  84718972.934 8
       125.133          48.000  
 24 12 03 02 29  5.0000000  0  7G10G21G23G25G28G31G32
  20542303.602 8 107950529.824 8      -849.285          50.000    20542306.797 8
  84117309.391 8      -661.785          48.000    20542303.945 8  80612406.785 8
      -634.195          51.000  
  24383300.320 6 128135102.480 6      -152.688          41.000    24383304.359 6
  99845545.727 6      -119.016          36.000                                  
                                
  22924958.328 7 120471455.500 7     -3144.387          43.000    22924966.680 6
  93873885.156 6     -2450.180          39.000    22924969.586 7  89962499.234 7
     -2348.043          45.000  
  21637839.977 7 113707618.012 7      -147.270          44.000    21637845.977 7
  88603369.453 7      -114.805          44.000    21637844.984 7  84911549.387 7
      -110.008          47.000  
  20737391.742 7 108975729.320 7       346.023          47.000    20737393.453 7
  84916157.184 7       269.633          45.000    20737395.086 8  81377991.859 8
       258.395          51.000  
  21820163.445 7 114665734.434 7      2292.984          46.000    21820165.805 7
  89349930.141 7      1786.691          45.000                                  
                                
  21588611.266 8 113448914.746 8       168.707          49.000    21588614.500 7
  88401760.176 7       131.441          46.000    21588611.305 8  84718343.527 8
       125.992          48.000  
 24 12 03 02 29 10.0000000  0  7G10G21G23G25G28G31G32
  20543113.383 8 107954784.371 8      -852.680          50.000    20543116.586 8
  84120624.613 8      -664.457          48.000    20543113.758 8  80615583.867 8
      -636.738          51.000  
  24383446.945 6 128135871.906 6      -155.188          41.000    24383450.727 6
  99846145.277 6      -120.977          36.000                                  
                                
  22927951.227 7 120487182.215 7     -3146.457          42.000    22927959.695 6
  93886139.680 6     -2451.793          39.000    22927962.320 7  89974243.125 7
     -2349.563          45.000  
  21637981.969 7 113708363.863 7      -151.137          44.000    21637988.086 7
  88603950.629 7      -117.746          44.000    21637986.852 7  84912106.348 7
      -112.848          47.000  
  20737063.820 7 108974005.883 7       343.246          47.000    20737065.523 7
  84914814.246 7       267.449          45.000    20737067.133 8  81376704.879 8
       256.324          51.000  
  21817982.836 7 114654275.750 7      2290.402          45.000    21817985.313 7
  89341001.309 7      1784.734          46.000                                  
                                
  21588451.266 8 113448073.082 8       167.887          49.000    21588454.172 7
  88401104.328 7       130.828          46.000    21588451.063 8  84717715.008 8
       125.367          48.000  
 24 12 03 02 29 15.0000000  0  8G10G21G23G25G26G28G31G32
  20543926.125 8 107959055.344 8      -855.770          50.000    20543929.320 8
  84123952.629 8      -666.867          48.000    20543926.484 8  80618773.211 8
      -639.078          51.000  
  24383595.719 6 128136653.484 6      -157.348          41.000    24383599.461 6
  99846754.246 6      -122.586          36.000                                  
                                
  22930945.766 7 120502918.531 7     -3148.168          42.000    22930954.219 6
  93898401.656 6     -2453.121          39.000    22930956.875 7  89985994.207 7
     -2350.887          45.000  
  21638127.398 7 113709128.066 7      -154.504          44.000    21638133.477 7
  88604546.102 7      -120.359          44.000    21638132.258 7  84912677.000 7
      -115.305          47.000  
  23945891.406 6 125836503.80116      3682.262          37.000                  
                                                                                
                                
  20736738.391 7 108972295.648 7       340.844          47.000    20736740.086 7
  84913481.598 7       265.605          45.000    20736741.695 8  81375427.754 8
       254.520          51.000  
  21815804.648 7 114642829.324 7      2288.156          45.000    21815807.094 7
  89332082.016 7      1783.000          46.000                                  
                                
  21588291.820 8 113447235.148 8       167.266          49.000    21588294.680 7
  88400451.383 7       130.324          46.000    21588291.609 8  84717089.262 8
       124.938          48.000  
 24 12 03 02 29 20.0000000  0  8G10G21G23G25G26G28G31G32
  20544742.055 8 107963343.113 8      -859.070          50.000    20544745.258 8
  84127293.727 8      -669.348          48.000    20544742.414 8  80621975.098 8
      -641.500          51.000  
  24383746.875 6 128137447.590 6      -159.891          41.000    24383750.586 6
  99847372.984 6      -124.578          36.000                                  
                                
  22933942.203 7 120518664.855 7     -3150.113          42.000    22933950.664 6
  93910671.469 6     -2454.637          39.000    22933953.328 7  89997752.742 7
     -2352.336          45.000  
  21638276.391 7 113709910.980 7      -158.215          44.000    21638282.445 7
  88605156.164 7      -123.273          44.000    21638281.234 7  84913261.652 7
      -118.148          47.000  
  23942387.805 6 125818094.027 6      3681.832          37.000                  
                                                  23942401.156 7  93955124.29717
      2749.535          42.000  
  20736415.539 7 108970599.000 7       338.117          47.000    20736417.227 7
  84912159.527 7       263.492          45.000    20736418.836 8  81374160.770 8
       252.508          51.000  
  21813628.875 7 114631395.520 7      2285.684          45.000    21813631.313 7
  89323172.574 7      1781.031          46.000                                  
                                
  21588133.156 8 113446401.285 8       166.535          49.000    21588135.969 7
  88399801.609 7       129.801          46.000    21588132.945 8  84716466.559 8
       124.395          48.000  
 24 12 03 02 29 25.0000000  0  8G10G21G23G25G26G28G31G32
  20545560.852 8 107967645.934 8      -862.000          50.000    20545564.055 7
  84130646.563 7      -671.648          47.000    20545561.211 8  80625188.223 8
      -643.645          51.000  
  24383900.078 6 128138252.465 6      -161.953          41.000    24383903.742 6
  99848000.145 6      -126.238          36.000                                  
                                
  22936940.211 7 120534419.398 7     -3151.699          42.000    22936948.664 6
  93922947.676 6     -2455.879          39.000    22936951.352 7  90009517.426 7
     -2353.480          45.000  
  21638428.633 7 113710710.906 7      -161.676          45.000    21638434.664 7
  88605779.473 7      -125.848          44.000    21638433.438 7  84913858.992 7
      -120.699          47.000  
  23938884.945 6 125799684.625 6      3681.887          37.000    23938900.672 6
  98025801.40616      2869.086          37.000    23938898.148 7  93941377.066 7
      2749.539          42.000  
  20736094.938 7 108968914.164 7       335.852          47.000    20736096.625 7
  84910846.684 7       261.688          45.000    20736098.234 8  81372902.609 8
       250.832          51.000  
  21811455.164 7 114619972.617 7      2283.551          46.000    21811457.594 7
  89314271.613 7      1779.402          45.000                                  
                                
  21587974.938 8 113445569.770 8       166.074          49.000    21587977.711 7
  88399153.668 7       129.477          46.000    21587974.719 8  84715845.617 8
       124.055          48.000  
 24 12 03 02 29 30.0000000  0  8G10G21G23G25G26G28G31G32
  20546382.359 8 107971963.035 8      -864.730          50.000    20546385.570 7
  84134010.516 7      -673.828          47.000    20546382.719 8  80628412.016 8
      -645.723          51.000  
  24384055.180 6 128139067.328 6      -163.832          41.000    24384058.805 6
  99848635.066 6      -127.676          36.000                                  
                                
  22939939.641 7 120550181.387 7     -3153.070          42.000    22939948.078 6
  93935229.660 6     -2456.938          39.000    22939950.797 7  90021287.664 7
     -2354.480          45.000  
  21638583.945 7 113711526.996 7      -164.668          44.000    21638589.953 7
  88606415.383 7      -128.297          44.000    21638588.719 7  84914468.398 7
      -122.934          47.000  
  23935381.914 6 125781274.781 6      3682.316          38.000    23935396.688 6
  98011456.117 6      2869.352          38.000    23935394.922 7  93927629.516 7
      2749.758          42.000  
  20735776.438 7 108967240.363 7       333.824          47.000    20735778.109 7
  84909542.398 7       260.117          45.000    20735779.727 8  81371652.688 8
       249.285          51.000  
  21809283.383 7 114608559.813 7      2281.742          45.000    21809285.797 7
  89305378.520 7      1778.051          45.000                                  
                                
  21587817.023 8 113444739.809 8       166.004          49.000    21587819.750 7
  88398506.934 7       129.391          46.000    21587816.797 8  84715225.828 8
       123.992          48.000  
 24 12 03 02 29 35.0000000  0  8G10G21G23G25G26G28G31G32
  20547206.758 8 107976295.289 8      -868.297          50.000    20547209.969 7
  84137386.297 7      -676.594          47.000    20547207.117 8  80631647.129 8
      -648.391          51.000  
  24384212.344 6 128139893.055 6      -166.547          41.000    24384215.984 6
  99849278.516 6      -129.809          36.000                                  
                                
  22942940.664 7 120565951.695 7     -3155.199          42.000    22942949.086 6
  93947518.160 6     -2458.598          39.000    22942952.336 7  90033064.129 7
     -2356.207          45.000  
  21638742.516 7 113712360.191 7      -168.699          44.000    21638748.500 7
  88607064.625 7      -131.387          44.000    21638747.258 7  84915090.590 7
      -125.922          47.000  
  23931878.953 6 125762865.469 6      3681.570          38.000    23931892.977 6
  97997111.262 6      2868.645          38.000    23931891.719 7  93913882.336 7
      2749.262          42.000  
  20735460.195 7 108965578.473 7       330.918          47.000    20735461.875 7
  84908247.426 7       257.859          45.000    20735463.492 8  81370411.668 8
       247.109          51.000  
  21807113.680 7 114597158.004 7      2278.957          45.000    21807116.102 7
  89296494.012 7      1775.801          45.000                                  
                                
  21587659.578 8 113443912.316 8       164.934          49.000    21587662.266 7
  88397862.133 7       128.504          46.000    21587659.344 8  84714607.891 8
       123.137          48.000  
 24 12 03 02 29 40.0000000  0  8G10G21G23G25G26G28G31G32
  20548034.477 8 107980645.031 8      -871.703          50.000    20548037.688 7
  84140775.676 7      -679.203          47.000    20548034.844 8  80634895.289 8
      -650.902          51.000  
  24384372.000 6 128140731.957 6      -168.934          41.000    24384375.641 6
  99849932.164 6      -131.625          36.000                                  
                                
  22945943.703 7 120581732.645 7     -3157.242          43.000    22945952.109 6
  93959814.934 6     -2460.191          39.000    22945955.383 7  90044848.516 7
     -2357.645          45.000  
  21638904.781 7 113713212.809 7      -172.492          45.000    21638910.758 7
  88607728.996 7      -134.363          44.000    21638909.492 7  84915727.273 7
      -128.727          47.000  
  23928376.406 6 125744458.992 6      3680.988          38.000    23928390.297 6
  97982768.574 6      2868.430          38.000    23928389.086 7  93900137.293 7
      2748.785          42.000  
  20735146.664 7 108963930.840 7       328.141          47.000    20735148.344 7
  84906963.520 7       255.719          45.000    20735149.961 8  81369181.277 8
       245.066          51.000  
  21804946.516 7 114585769.535 7      2276.375          45.000    21804948.930 7
  89287619.887 7      1773.820          45.000                                  
                                
  21587503.039 8 113443089.594 8       164.152          49.000    21587505.680 7
  88397221.039 7       127.840          46.000    21587502.797 8  84713993.504 8
       122.551          48.000  
 24 12 03 02 29 45.0000000  0  8G10G21G23G25G26G28G31G32
  20548865.219 8 107985010.617 8      -874.438          50.000    20548868.422 7
  84144177.422 7      -681.410          47.000    20548865.586 8  80638155.297 8
      -652.961          51.000  
  24384533.852 6 128141582.422 6      -170.898          41.000    24384537.484 6
  99850594.813 6      -133.168          36.000                                  
                                
  22948948.461 7 120597522.563 7     -3158.539          43.000    22948956.852 6
  93972118.711 6     -2461.203          39.000    22948960.141 7  90056639.617 7
     -2358.656          45.000  
  21639070.422 7 113714083.195 7      -175.504          45.000    21639076.391 7
  88608407.219 7      -136.773          44.000    21639075.102 7  84916377.238 7
      -131.059          47.000  
  23924873.930 6 125726053.699 6      3681.207          38.000    23924888.000 6
  97968426.852 6      2868.469          38.000    23924886.695 7  93886393.141 7
      2748.945          42.000  
  20734835.523 7 108962295.793 7       326.070          47.000    20734837.219 7
  84905689.473 7       254.074          45.000    20734838.828 8  81367960.301 8
       243.488          51.000  
  21802781.586 7 114574392.777 7      2274.469          45.000    21802783.984 7
  89278754.895 7      1772.227          45.000                                  
                                
  21587347.102 8 113442270.020 8       163.891          50.000    21587349.703 7
  88396582.398 7       127.637          46.000    21587346.844 8  84713381.473 8
       122.367          48.000  
 24 12 03 02 29 50.0000000  0  8G10G21G23G25G26G28G31G32
  20549698.789 8 107989391.121 8      -877.563          50.000    20549702.000 7
  84147590.789 7      -683.848          47.000    20549699.156 8  80641426.430 8
      -655.324          51.000  
  24384697.719 6 128142443.496 6      -173.230          41.000    24384701.359 6
  99851265.781 6      -134.973          36.000                                  
                                
  22951954.750 7 120613320.547 7     -3160.383          43.000    22951963.125 6
  93984428.766 6     -2462.641          39.000    22951966.422 7  90068436.738 7
     -2360.008          45.000  
  21639239.266 7 113714970.438 7      -179.109          45.000    21639245.242 7
  88609098.563 7      -139.539          44.000    21639243.930 7  84917039.785 7
      -133.770          47.000  
  23921371.492 6 125707648.703 6      3681.008          39.000    23921385.734 6
  97954085.324 6      2868.250          38.000    23921384.352 7  93872649.188 7
      2748.809          42.000  
  20734526.594 7 108960672.402 7       323.539          47.000    20734528.305 7
  84904424.484 7       252.125          45.000    20734529.914 8  81366748.023 8
       241.594          51.000  
  21800618.688 7 114563026.730 7      2272.215          45.000    21800621.078 7
  89269898.246 7      1770.496          45.000                                  
                                
  21587191.578 8 113441452.668 8       163.305          49.000    21587194.148 7
  88395945.480 7       127.234          46.000    21587191.313 8  84712771.090 8
       121.992          48.000  
 24 12 03 02 29 55.0000000  0  8G10G21G23G25G26G28G31G32
  20550534.883 8 107993784.848 8      -880.281          51.000    20550538.094 7
  84151014.453 7      -685.906          47.000    20550535.258 8  80644707.438 8
      -657.352          51.000  
  24384863.281 6 128143313.469 6      -175.129          41.000    24384866.922 6
  99851943.660 6      -136.480          36.000                                  
                                
  22954962.250 7 120629124.883 7     -3161.766          43.000    22954970.609 6
  93996743.777 6     -2463.719          39.000    22954973.922 7  90080238.602 7
     -2361.090          45.000  
  21639410.984 7 113715872.832 7      -182.148          45.000    21639416.984 7
  88609801.730 7      -141.914          44.000    21639415.641 7  84917713.648 7
      -136.086          47.000  
  23917868.828 6 125689242.320 6      3681.207          39.000    23917883.164 6
  97939742.730 6      2868.375          38.000    23917881.727 7  93858904.215 7
      2748.992          42.000  
  20734219.570 7 108959058.984 7       321.449          47.000    20734221.297 7
  84903167.285 7       250.453          45.000    20734222.969 8  81365543.191 8
       240.047          51.000  
  21798457.523 7 114551669.797 7      2270.246          45.000    21798459.898 7
  89261048.688 7      1769.031          45.000                                  
                                
  21587036.156 8 113440635.832 8       163.090          49.000    21587038.703 7
  88395308.980 7       127.117          46.000    21587035.883 8  84712161.105 8
       121.840          48.000  
 24 12 03 02 30  0.0000000  0  8G10G21G23G25G26G28G31G32
  20551373.930 8 107998194.258 8      -882.992          50.000    20551377.172 7
  84154450.348 7      -688.043          47.000    20551374.336 8  80648000.172 8
      -659.391          51.000  
  24385031.273 6 128144194.797 6      -176.973          41.000    24385034.828 6
  99852630.434 6      -137.867          36.000                                  
                                
  22957971.672 7 120644938.012 7     -3163.066          43.000    22957980.047 6
  94009065.609 6     -2464.730          39.000    22957983.086 7  90092047.023 7
     -2362.043          45.000  
  21639586.164 7 113716792.855 7      -185.313          44.000    21639592.039 7
  88610518.621 7      -144.316          44.000    21639590.586 7  84918400.676 7
      -138.395          47.000  
  23914366.383 6 125670837.004 6      3681.344          39.000    23914380.820 6
  97925400.953 6      2868.613          38.000    23914379.305 7  93845160.027 7
      2749.137          42.000  
  20733914.961 7 108957457.969 7       319.406          47.000    20733916.727 7
  84901919.723 7       248.906          45.000    20733918.305 8  81364347.629 8
       238.527          51.000  
  21796298.516 7 114540324.449 7      2268.363          45.000    21796300.703 7
  89252208.172 7      1767.563          45.000                                  
                                
  21586881.438 8 113439821.980 8       162.930          49.000    21586883.641 7
  88394674.801 7       126.969          46.000    21586881.141 8  84711553.352 8
       121.680          48.000  
 24 12 03 02 30  5.0000000  0  8G10G21G23G25G26G28G31G32
  20552216.078 8 108002619.742 8      -886.895          50.000    20552219.297 7
  84157898.762 7      -691.105          47.000    20552216.477 8  80651304.891 8
      -662.277          51.000  
  24385201.219 6 128145087.855 6      -179.918          41.000    24385204.750 6
  99853326.293 6      -140.164          36.000                                  
                                
  22960982.609 7 120660760.285 7     -3165.492          43.000    22960990.938 6
  94021394.586 6     -2466.625          39.000    22960993.984 7  90103862.285 7
     -2363.859          45.000  
  21639764.648 7 113717730.871 7      -189.520          44.000    21639770.539 7
  88611249.547 7      -147.719          44.000    21639769.078 7  84919101.125 7
      -141.512          47.000  
  23910864.227 6 125652433.160 6      3680.441          39.000    23910878.688 6
  97911060.313 6      2867.922          38.000    23910877.148 7  93831416.949 7
      2748.355          42.000  
  20733612.734 7 108955869.750 7       316.117          47.000    20733614.508 7
  84900682.129 7       246.359          45.000    20733616.070 8  81363161.609 8
       236.137          51.000  
  21794141.820 7 114528991.004 7      2265.340          45.000    21794143.992 7
  89243376.918 7      1765.203          45.000                                  
                                
  21586727.211 8 113439011.504 8       161.551          49.000    21586729.422 7
  88394043.242 7       125.906          46.000    21586726.914 8  84710948.109 8
       120.641          48.000  
 24 12 03 02 30 10.0000000  0  8G10G21G23G25G26G28G31G32
  20553061.406 8 108007061.914 8      -890.168          50.000    20553064.617 7
  84161360.168 7      -693.648          47.000    20553061.797 8  80654622.074 8
      -664.719          51.000  
  24385373.516 6 128145993.262 6      -182.355          41.000    24385377.023 6
  99854031.789 6      -142.063          36.000                                  
                                
  22963995.406 7 120676592.363 7     -3167.352          43.000    22964003.711 6
  94033731.215 6     -2468.070          39.000    22964006.758 7  90115684.852 7
     -2365.199          45.000  
  21639946.680 7 113718687.523 7      -193.219          44.000    21639952.578 7
  88611994.973 7      -150.563          44.000    21639951.125 7  84919815.492 7
      -144.246          47.000  
  23907362.461 6 125634031.410 6      3680.082          39.000    23907376.914 6
  97896721.355 6      2867.641          39.000    23907375.375 7  93817675.434 7
      2748.063          42.000  
  20733313.055 7 108954294.934 7       313.590          47.000    20733314.852 7
  84899455.012 7       244.352          45.000    20733316.391 8  81361985.602 8
       234.188          51.000  
  21791987.508 7 114517670.117 7      2262.898          45.000    21791989.680 7
  89234555.445 7      1763.316          45.000                                  
                                
  21586573.734 8 113438205.012 8       160.863          49.000    21586575.945 7
  88393414.797 7       125.328          46.000    21586573.445 8  84710345.844 8
       120.180          48.000  
 24 12 03 02 30 15.0000000  0  8G10G21G23G25G26G28G31G32
  20553908.938 8 108011515.730 8      -891.438          50.000    20553912.156 7
  84164830.664 7      -694.660          47.000    20553909.328 8  80657947.957 8
      -665.691          51.000  
  24385547.195 6 128146905.988 6      -182.762          41.000    24385550.703 6
  99854742.969 6      -142.387          36.000                                  
                                
  22967009.102 7 120692429.168 7     -3167.313          43.000    22967017.383 6
  94046071.508 6     -2468.035          39.000    22967020.430 7  90127510.961 7
     -2365.109          45.000  
  21640131.305 7 113719657.758 7      -194.910          44.000    21640137.234 7
  88612750.996 7      -151.922          44.000    21640135.766 7  84920540.016 7
      -145.570          47.000  
  23903860.148 6 125615626.773 6      3681.625          40.000    23903874.563 6
  97882380.086 6      2868.949          39.000    23903873.063 7  93803931.742 7
      2749.301          42.000  
  20733014.961 7 108952728.484 7       312.941          47.000    20733016.773 7
  84898234.387 7       243.879          45.000    20733018.305 8  81360815.844 8
       233.688          51.000  
  21789834.625 7 114506356.762 7      2262.434          45.000    21789836.820 7
  89225739.859 7      1762.945          45.000                                  
                                
  21586420.047 8 113437397.484 8       162.156          49.000    21586422.281 7
  88392785.547 7       126.340          46.000    21586419.781 8  84709742.813 8
       121.070          48.000  
 24 12 03 02 30 20.0000000  0  8G10G21G23G25G26G28G31G32
  20554758.570 8 108015980.531 8      -894.332          50.000    20554761.789 7
  84168309.723 7      -696.965          47.000    20554758.953 8  80661282.051 8
      -667.863          51.000  
  24385722.148 6 128147825.375 6      -184.863          41.000    24385725.633 6
  99855459.355 6      -144.043          36.000                                  
                                
  22970023.563 7 120708270.035 7     -3168.938          43.000    22970031.820 6
  94058414.969 6     -2469.313          39.000    22970034.867 7  90139340.102 7
     -2366.340          45.000  
  21640318.391 7 113720640.918 7      -198.191          44.000    21640324.344 7
  88613517.086 7      -154.438          44.000    21640322.859 7  84921274.184 7
      -147.984          47.000  
  23900357.148 6 125597218.543 6      3681.707          40.000    23900371.578 6
  97868036.078 6      2868.828          39.000    23900370.086 7  93790185.383 7
      2749.281          43.000  
  20732718.344 7 108951169.730 7       310.676          47.000    20732720.156 7
  84897019.777 7       242.078          45.000    20732721.680 8  81359651.832 8
       232.027          51.000  
  21787683.047 7 114495050.242 7      2260.320          45.000    21787685.281 7
  89216929.602 7      1761.238          45.000                                  
                                
  21586266.047 8 113436588.254 8       161.746          49.000    21586268.289 7
  88392154.965 7       126.016          46.000    21586265.789 8  84709138.508 8
       120.801          48.000  
 24 12 03 02 30 25.0000000  0  8G10G21G23G25G26G28G31G32
  20555611.102 8 108020460.531 8      -897.480          50.000    20555614.313 7
  84171800.613 7      -699.332          47.000    20555611.469 8  80664627.484 8
      -670.160          51.000  
  24385899.172 6 128148755.621 6      -187.117          41.000    24385902.641 6
  99856184.195 6      -145.824          36.000                                  
                                
  22973039.594 7 120724119.156 7     -3170.605          43.000    22973047.836 6
  94070764.902 6     -2470.602          39.000    22973051.367 7  90151175.422 7
     -2367.719          45.000  
  21640508.742 7 113721641.219 7      -201.684          45.000    21640514.695 7
  88614296.535 7      -157.125          44.000    21640513.219 7  84922021.160 7
      -150.645          47.000  
  23896854.281 6 125578810.973 6      3681.500          40.000    23896868.680 6
  97853692.547 6      2868.637          39.000    23896867.234 7  93776439.508 7
      2749.191          43.000  
  20732423.992 7 108949622.879 7       308.242          47.000    20732425.813 7
  84895814.457 7       240.160          45.000    20732427.320 8  81358496.719 8
       230.180          51.000  
  21785533.578 7 114483754.836 7      2258.008          45.000    21785535.859 7
  89208127.984 7      1759.477          45.000                                  
                                
  21586112.531 8 113435781.539 8       161.129          49.000    21586114.773 7
  88391526.355 7       125.523          46.000    21586112.273 8  84708536.082 8
       120.281          48.000  
 24 12 03 02 30 30.0000000  0  8G10G21G23G25G26G28G31G32
  20556466.531 8 108024955.762 8      -900.695          50.000    20556469.727 7
  84175303.375 7      -701.898          47.000    20556466.883 8  80667984.297 8
      -672.648          51.000  
  24386078.250 6 128149696.723 6      -189.379          40.000    24386081.734 6
  99856917.535 6      -147.641          36.000                                  
                                
  22976057.203 7 120739976.566 7     -3172.449          43.000    22976065.422 6
  94083121.254 6     -2472.043          39.000    22976068.953 7  90163016.910 7
     -2369.031          45.000  
  21640702.367 7 113722658.684 7      -205.320          44.000    21640708.305 7
  88615089.359 7      -160.059          44.000    21640706.844 7  84922780.945 7
      -153.348          47.000  
  23893351.539 6 125560404.086 6      3681.223          40.000    23893365.898 6
  97839349.566 6      2868.387          39.000    23893364.516 7  93762694.160 7
      2748.906          43.000  
  20732131.906 7 108948087.973 7       305.602          47.000    20732133.727 7
  84894618.406 7       238.117          45.000    20732135.227 8  81357350.512 8
       228.230          51.000  
  21783386.227 7 114472470.531 7      2255.617          45.000    21783388.547 7
  89199335.039 7      1757.469          45.000                                  
                                
  21585959.500 8 113434977.371 8       160.426          49.000    21585961.742 7
  88390899.711 7       125.039          46.000    21585959.242 8  84707935.551 8
       119.766          48.000  
 24 12 03 02 30 35.0000000  0  8G10G21G23G25G26G28G31G32
  20557325.273 8 108029468.422 8      -904.008          50.000    20557328.461 7
  84178819.707 7      -704.422          47.000    20557325.617 8  80671354.117 8
      -675.051          51.000  
  24386259.820 6 128150650.887 6      -191.766          40.000    24386263.305 5
  99857661.000 5      -149.414          35.000                                  
                                
  22979076.797 7 120755844.453 7     -3174.438          43.000    22979085.000 6
  94095485.762 6     -2473.590          39.000    22979088.531 7  90174866.219 7
     -2370.457          45.000  
  21640899.672 7 113723695.539 7      -209.070          45.000    21640905.602 7
  88615897.289 7      -162.930          43.000    21640904.156 7  84923555.215 7
      -156.152          46.000  
  23889849.359 6 125542000.129 6      3680.773          41.000    23889863.680 6
  97825008.859 6      2868.117          40.000    23889862.344 7  93748950.980 7
      2748.684          43.000  
  20731842.500 7 108946567.160 7       303.043          47.000    20731844.328 7
  84893433.344 7       236.145          45.000    20731845.828 8  81356214.840 8
       226.277          51.000  
  21781241.414 7 114461199.531 7      2253.125          45.000    21781243.758 7
  89190552.441 7      1755.664          45.000                                  
                                
  21585807.375 8 113434177.930 8       159.738          49.000    21585809.625 7
  88390276.777 7       124.352          46.000    21585807.102 8  84707338.551 8
       119.285          48.000  
 24 12 03 02 30 40.0000000  0  8G10G21G23G25G26G28G31G32
  20558186.656 8 108033994.953 8      -906.938          50.000    20558189.836 7
  84182346.855 7      -706.676          47.000    20558186.984 8  80674734.297 8
      -677.223          51.000  
  24386443.211 6 128151614.594 6      -193.887          41.000    24386446.703 5
  99858411.898 5      -151.063          35.000                                  
                                
  22982097.711 7 120771719.227 7     -3175.828          43.000    22982105.898 6
  94107855.660 6     -2474.676          39.000    22982109.430 7  90186720.695 7
     -2371.648          45.000  
  21641100.000 7 113724748.188 7      -212.383          45.000    21641105.898 7
  88616717.523 7      -165.449          43.000    21641104.477 7  84924341.273 7
      -158.590          46.000  
  23886347.063 6 125523595.512 6      3680.836          41.000    23886361.336 6
  97810667.617 6      2868.180          40.000    23886360.055 7  93735207.324 7
      2748.672          43.000  
  20731555.109 7 108945056.918 7       300.805          47.000    20731556.938 7
  84892256.520 7       234.402          45.000    20731558.430 8  81355087.051 8
       224.629          51.000  
  21779098.461 7 114449938.297 7      2251.063          45.000    21779100.828 7
  89181777.445 7      1754.113          45.000                                  
                                
  21585655.469 8 113433379.684 8       159.387          49.000    21585657.742 7
  88389654.738 7       124.223          45.000    21585655.188 8  84706742.445 8
       119.012          48.000  
 24 12 03 02 30 45.0000000  0  8G10G21G23G25G26G28G31G32
  20559050.781 8 108038535.902 8      -909.738          51.000    20559053.953 7
  84185885.238 7      -708.848          46.000    20559051.094 8  80678125.246 8
      -679.348          51.000  
  24386628.508 6 128152588.348 6      -195.867          40.000    24386632.016 5
  99859170.652 5      -152.613          35.000                                  
                                
  22985120.039 7 120787601.465 7     -3177.320          43.000    22985128.211 6
  94120231.352 6     -2475.836          39.000    22985131.734 7  90198580.723 7
     -2372.598          45.000  
  21641303.430 7 113725817.191 7      -215.547          45.000    21641309.328 7
  88617550.512 7      -167.949          43.000    21641307.906 7  84925139.547 7
      -160.930          46.000  
  23882844.750 6 125505190.828 6      3680.887          41.000    23882859.000 6
  97796326.371 6      2868.133          40.000    23882857.750 7  93721463.621 7
      2748.699          43.000  
  20731269.836 7 108943557.793 7       298.617          47.000    20731271.656 7
  84891088.367 7       232.672          45.000    20731273.133 8  81353967.563 8
       222.988          51.000  
  21776957.469 7 114438687.387 7      2249.039          45.000    21776959.867 7
  89173010.520 7      1752.484          44.000                                  
                                
  21585503.898 8 113432583.184 8       159.086          49.000    21585506.195 7
  88389034.086 7       123.910          45.000    21585503.609 7  84706147.645 7
       118.758          47.000  
 24 12 03 02 30 50.0000000  0  8G10G21G23G25G26G28G31G32
  20559918.031 8 108043092.805 8      -913.145          50.000    20559921.164 7
  84189436.055 7      -711.477          47.000    20559918.281 8  80681528.109 8
      -681.879          51.000  
  24386816.000 6 128153573.648 6      -198.422          41.000    24386819.516 5
  99859938.359 5      -154.625          35.000                                  
                                
  22988144.523 7 120803492.672 7     -3179.262          43.000    22988152.633 6
  94132614.063 6     -2477.352          39.000    22988155.758 7  90210447.457 7
     -2374.145          44.000  
  21641510.289 7 113726904.113 7      -219.293          45.000    21641516.203 7
  88618397.445 7      -170.848          43.000    21641514.820 7  84925951.203 7
      -163.793          46.000  
  23879342.727 6 125486787.605 6      3680.379          41.000    23879356.953 6
  97781986.242 6      2867.766          40.000    23879355.703 7  93707721.000 7
      2748.426          43.000  
  20730986.961 7 108942071.293 7       295.918          47.000    20730988.844 7
  84889930.055 7       230.539          45.000    20730990.258 8  81352857.516 8
       220.961          51.000  
  21774818.594 7 114427448.285 7      2246.531          45.000    21774821.180 7
  89164252.781 7      1750.551          45.000                                  
                                
  21585352.906 8 113431789.961 8       158.191          49.000    21585355.367 7
  88388415.969 7       123.301          45.000    21585352.648 7  84705555.285 7
       118.125          47.000  
 24 12 03 02 30 55.0000000  0  8G10G21G23G25G26G28G31G32
  20560788.445 8 108047666.742 8      -916.855          50.000    20560791.570 7
  84193000.145 7      -714.359          46.000    20560788.664 8  80684943.691 8
      -684.656          51.000  
  24387005.922 6 128154571.629 6      -201.207          40.000    24387009.461 5
  99860716.016 5      -156.789          35.000                                  
                                
  22991170.484 7 120819393.926 7     -3181.574          43.000    22991178.563 6
  94145004.574 6     -2479.152          38.000    22991181.688 7  90222321.684 7
     -2375.840          44.000  
  21641720.781 7 113728010.027 7      -223.414          45.000    21641726.664 7
  88619259.199 7      -174.156          43.000    21641725.281 7  84926777.043 7
      -166.871          46.000  
  23875840.984 6 125468386.949 6      3679.668          41.000    23875855.383 6
  97767648.113 6      2867.199          40.000    23875854.141 7  93693980.305 7
      2747.816          43.000  
  20730706.703 7 108940598.500 7       292.836          47.000    20730708.563 7
  84888782.410 7       228.180          45.000    20730709.984 8  81351757.695 8
       218.691          51.000  
  21772682.352 7 114416222.117 7      2243.648          45.000    21772684.898 7
  89155505.117 7      1748.305          44.000                                  
                                
  21585202.797 8 113431001.090 8       156.969          49.000    21585205.281 7
  88387801.258 7       122.285          45.000    21585202.523 8  84704966.188 8
       117.207          48.000  
 24 12 03 02 31  0.0000000  0  8G10G21G23G25G26G28G31G32
  20561661.891 8 108052256.672 8      -919.676          50.000    20561665.016 7
  84196576.707 7      -716.609          47.000    20561662.094 8  80688371.227 8
      -686.766          51.000  
  24387198.047 6 128155581.211 6      -203.137          40.000    24387201.594 5
  99861502.652 5      -158.305          35.000                                  
                                
  22994198.133 7 120835304.180 7     -3183.070          43.000    22994206.211 6
  94157402.094 6     -2480.320          39.000    22994209.328 7  90234202.629 7
     -2376.895          45.000  
  21641934.672 7 113729133.863 7      -226.711          45.000    21641940.531 7
  88620134.906 7      -176.715          43.000    21641939.148 7  84927616.262 7
      -169.309          46.000  
  23872339.734 6 125449987.836 6      3679.559          41.000    23872354.102 6
  97753311.184 6      2867.238          40.000    23872352.563 7  93680240.754 7
      2747.855          43.000  
  20730428.859 7 108939138.363 7       290.652          47.000    20730430.695 7
  84887644.641 7       226.480          45.000    20730432.125 8  81350667.332 8
       217.023          51.000  
  21770548.367 7 114405007.801 7      2241.559          45.000    21770550.883 7
  89146766.699 7      1746.652          45.000                                  
                                
  21585053.305 8 113430215.535 8       156.660          49.000    21585055.836 7
  88387189.133 7       122.055          45.000    21585053.031 8  84704379.559 8
       116.969          48.000  
 24 12 03 02 31  5.0000000  0  8G10G21G23G25G26G28G31G32
  20562538.195 8 108056861.680 8      -922.383          50.000    20562541.328 7
  84200165.012 7      -718.762          47.000    20562538.391 8  80691810.008 8
      -688.828          51.000  
  24387392.195 6 128156601.465 6      -204.938          40.000    24387395.773 5
  99862297.656 5      -159.723          35.000                                  
                                
  22997227.313 7 120851222.480 7     -3184.324          43.000    22997235.406 6
  94169805.902 6     -2481.293          39.000    22997238.500 7  90246089.602 7
     -2377.949          45.000  
  21642151.781 7 113730274.727 7      -229.809          45.000    21642157.602 7
  88621023.871 7      -178.984          43.000    21642156.250 7  84928468.188 7
      -171.555          47.000  
  23868838.602 6 125431589.352 6      3679.719          41.000    23868852.383 6
  97738974.738 6      2867.324          40.000    23868851.414 7  93666501.695 7
      2747.770          44.000  
  20730153.242 7 108937689.980 7       288.613          47.000    20730155.070 7
  84886516.023 7       224.883          45.000    20730156.500 8  81349585.738 8
       215.516          51.000  
  21768416.469 7 114393804.469 7      2239.656          45.000    21768418.984 7
  89138036.840 7      1745.203          45.000                                  
                                
  21584904.273 8 113429432.387 8       156.465          49.000    21584906.836 7
  88386578.871 7       122.000          45.000    21584903.992 8  84703794.723 8
       116.883          48.000  
 24 12 03 02 31 10.0000000  0  8G10G21G23G25G26G28G31G32
  20563417.117 8 108061480.410 8      -925.395          50.000    20563420.258 7
  84203763.992 7      -721.074          47.000    20563417.289 8  80695259.035 8
      -691.047          51.000  
  24387588.117 6 128157631.047 6      -207.082          40.000    24387591.742 5
  99863099.938 5      -161.410          35.000                                  
                                
  23000257.766 7 120867147.480 7     -3185.926          43.000    23000265.867 6
  94182214.910 6     -2482.543          39.000    23000268.945 7  90257981.570 7
     -2379.156          45.000  
  21642371.867 7 113731431.250 7      -233.145          45.000    21642377.664 7
  88621925.059 7      -181.707          43.000    21642376.336 7  84929331.824 7
      -174.102          47.000  
  23865337.336 6 125413190.145 6      3679.637          41.000    23865351.094 6
  97724637.734 6      2867.168          40.000    23865350.125 7  93652762.070 7
      2747.770          44.000  
  20729879.602 7 108936251.961 7       286.301          47.000    20729881.406 7
  84885395.477 7       223.051          45.000    20729882.852 8  81348511.887 8
       213.770          51.000  
  21766286.398 7 114382610.758 7      2237.539          46.000    21766288.914 7
  89129314.480 7      1743.410          45.000                                  
                                
  21584755.438 8 113428650.281 8       155.988          49.000    21584758.047 7
  88385969.434 7       121.539          45.000    21584755.156 8  84703210.676 8
       116.488          48.000  
 24 12 03 02 31 15.0000000  0  8G10G21G23G25G26G28G31G32
  20564298.984 8 108066114.652 8      -928.340          50.000    20564302.148 7
  84207375.086 7      -723.406          47.000    20564299.148 8  80698719.652 8
      -693.254          51.000  
  24387786.164 6 128158671.750 6      -209.199          40.000    24387789.805 5
  99863910.813 5      -163.004          35.000                                  
                                
  23003289.828 7 120883080.957 7     -3187.484          43.000    23003297.938 6
  94194630.547 6     -2483.754          39.000    23003301.414 7  90269879.859 7
     -2380.234          45.000  
  21642595.273 7 113732605.234 7      -236.457          45.000    21642601.063 7
  88622839.844 7      -184.246          43.000    21642599.742 7  84930208.496 7
      -176.602          47.000  
  23861836.289 6 125394792.027 6      3679.523          41.000    23861850.016 6
  97710301.586 6      2867.117          40.000    23861849.063 7  93639023.266 7
      2747.723          44.000  
  20729608.273 7 108934826.094 7       284.031          47.000    20729610.070 7
  84884284.414 7       221.348          45.000    20729611.516 8  81347447.113 8
       212.063          51.000  
  21764158.516 7 114371428.473 7      2235.449          46.000    21764161.016 7
  89120601.012 7      1741.918          45.000                                  
                                
  21584607.141 8 113427871.008 8       155.676          49.000    21584609.805 7
  88385362.199 7       121.250          46.000    21584606.859 8  84702628.746 8
       116.203          48.000  
 24 12 03 02 31 20.0000000  0  8G10G21G23G25G26G28G31G32
  20565183.789 8 108070764.324 8      -931.188          50.000    20565186.969 7
  84210998.188 7      -725.602          47.000    20565183.953 8  80702191.789 8
      -695.355          51.000  
  24387986.289 6 128159723.453 6      -211.145          40.000    24387989.961 5
  99864730.320 5      -164.543          35.000                                  
                                
  23006323.484 7 120899022.848 7     -3188.934          43.000    23006331.602 6
  94207052.734 6     -2484.891          39.000    23006335.070 7  90281784.434 7
     -2381.363          45.000  
  21642821.984 7 113733796.621 7      -239.801          45.000    21642827.781 7
  88623768.191 7      -186.906          43.000    21642826.461 7  84931098.156 7
      -179.043          47.000  
  23858335.430 6 125376394.938 6      3679.617          41.000    23858349.156 6
  97695966.234 6      2867.160          40.000    23858348.203 7  93625285.234 7
      2747.738          44.000  
  20729339.250 7 108933412.332 7       281.813          47.000    20729341.031 7
  84883182.781 7       219.574          45.000    20729342.484 8  81346391.375 8
       210.402          51.000  
  21762032.789 7 114360257.559 7      2233.316          46.000    21762035.258 7
  89111896.406 7      1740.211          45.000                                  
                                
  21584459.375 8 113427094.535 8       155.234          49.000    21584462.086 7
  88384757.145 7       120.973          46.000    21584459.102 8  84702048.898 8
       115.930          48.000  
 24 12 03 02 31 25.0000000  0  8G10G21G23G25G26G28G31G32
  20566071.820 8 108075431.000 8      -934.816          50.000    20566075.031 7
  84214634.547 7      -728.457          47.000    20566071.984 8  80705676.629 8
      -698.078          51.000  
  24388188.805 6 128160787.719 6      -213.844          40.000    24388192.508 5
  99865559.586 5      -166.625          35.000                                  
                                
  23009359.031 7 120914974.672 7     -3191.117          43.000    23009367.148 6
  94219482.660 6     -2486.590          39.000    23009370.625 7  90293696.430 7
     -2382.992          45.000  
  21643052.297 7 113735006.941 7      -243.754          45.000    21643058.086 7
  88624711.293 7      -189.926          43.000    21643056.781 7  84932001.961 7
      -181.980          47.000  
  23854835.063 6 125358000.434 6      3678.863          41.000    23854848.805 6
  97681632.898 6      2866.703          40.000    23854847.836 7  93611549.129 7
      2747.180          44.000  
  20729072.820 7 108932012.195 7       278.914          47.000    20729074.594 7
  84882091.758 7       217.340          45.000    20729076.047 8  81345345.809 8
       208.281          51.000  
  21759909.516 7 114349099.551 7      2230.609          46.000    21759911.969 7
  89103201.859 7      1738.137          45.000                                  
                                
  21584312.422 8 113426322.367 8       154.301          49.000    21584315.180 7
  88384155.457 7       120.188          46.000    21584312.164 8  84701472.262 8
       115.320          48.000  
 24 12 03 02 31 30.0000000  0  8G10G21G23G25G26G28G31G32
  20566962.789 8 108080113.129 8      -937.535          50.000    20566966.016 7
  84218282.941 7      -730.563          47.000    20566962.961 8  80709173.004 8
      -700.121          51.000  
  24388393.414 6 128161863.066 6      -216.012          40.000    24388397.164 5
  99866397.516 5      -168.371          35.000                                  
                                
  23012396.172 7 120930934.902 7     -3192.660          43.000    23012404.297 6
  94231919.129 6     -2487.789          39.000    23012407.773 7  90305614.695 7
     -2384.082          45.000  
  21643285.930 7 113736234.656 7      -246.934          45.000    21643291.703 7
  88625667.945 7      -192.422          43.000    21643290.414 7  84932918.758 7
      -184.422          47.000  
  23851334.898 6 125339607.027 6      3678.930          41.000    23851348.625 6
  97667300.402 6      2866.660          39.000    23851347.672 7  93597813.828 7
      2747.242          43.000  
  20728808.688 7 108930624.152 7       276.711          47.000    20728810.453 7
  84881010.172 7       215.621          45.000    20728811.914 8  81344309.281 8
       206.637          51.000  
  21757788.406 7 114337952.926 7      2228.516          46.000    21757790.836 7
  89094516.188 7      1736.504          45.000                                  
                                
  21584166.016 8 113425553.020 8       153.848          49.000    21584168.813 7
  88383555.941 7       119.953          46.000    21584165.766 8  84700897.746 8
       114.879          48.000  
 24 12 03 02 31 35.0000000  0  8G10G21G23G25G26G28G31G32
  20567856.266 8 108084808.422 8      -940.582          50.000    20567859.508 7
  84221941.590 7      -732.949          47.000    20567856.445 8  80712679.203 8
      -702.379          51.000  
  24388599.680 6 128162947.129 6      -217.867          40.000    24388603.445 5
  99867242.176 5      -169.820          35.000                                  
                                
  23015434.469 7 120946901.215 7     -3194.137          43.000    23015442.609 6
  94244360.320 6     -2488.941          39.000    23015446.078 7  90317537.516 7
     -2385.215          45.000  
  21643522.438 7 113737477.512 7      -250.387          45.000    21643528.188 7
  88626636.402 7      -195.109          43.000    21643526.922 7  84933846.852 7
      -186.961          47.000  
  23847834.508 7 125321212.402 7      3678.824          42.000    23847848.195 6
  97652966.984 6      2866.672          39.000    23847847.289 7  93584077.633 7
      2747.176          43.000  
  20728546.422 7 108929245.918 7       274.398          47.000    20728548.172 7
  84879936.199 7       213.809          45.000    20728549.625 8  81343280.074 8
       204.910          51.000  
  21755669.016 7 114326815.387 7      2226.332          46.000    21755671.430 7
  89085837.578 7      1734.832          45.000                                  
                                
  21584019.703 8 113424784.164 8       153.465          49.000    21584022.539 7
  88382956.832 7       119.559          46.000    21584019.461 8  84700323.590 8
       114.609          48.000  
 24 12 03 02 31 40.0000000  0  8G10G21G23G25G26G28G31G32
  20568752.641 8 108089518.809 8      -943.617          50.000    20568756.023 7
  84225612.008 7      -735.313          47.000    20568752.797 8  80716196.680 8
      -704.621          51.000  
  24388807.922 6 128164041.906 6      -220.137          40.000    24388812.055 5
  99868095.219 5      -171.484          35.000                                  
                                
  23018474.523 7 120962875.555 7     -3195.699          43.000    23018482.891 6
  94256807.809 6     -2490.160          39.000    23018485.914 7  90329466.324 7
     -2386.418          45.000  
  21643762.313 7 113738737.414 7      -253.672          45.000    21643767.859 7
  88627618.129 7      -197.676          43.000    21643766.750 7  84934787.680 7
      -189.402          46.000  
  23844334.258 7 125302818.527 7      3678.723          42.000    23844347.906 6
  97638634.121 6      2866.598          39.000    23844347.039 7  93570341.988 7
      2747.074          43.000  
  20728286.445 7 108927879.395 7       272.094          47.000    20728288.055 7
  84878871.383 7       212.039          45.000    20728289.586 8  81342259.609 8
       203.207          51.000  
  21753551.969 7 114315688.859 7      2224.172          46.000    21753554.180 7
  89077167.574 7      1733.102          45.000                                  
                                
  21583873.805 8 113424017.746 8       153.000          49.000    21583877.117 7
  88382359.621 7       119.176          46.000    21583873.625 8  84699751.258 8
       114.254          48.000  
 24 12 03 02 31 45.0000000  0  8G10G21G23G25G26G28G31G32
  20569652.023 8 108094245.207 8      -946.965          50.000    20569655.406 7
  84229294.891 7      -737.852          47.000    20569652.211 8  80719726.113 8
      -707.137          51.000  
  24389018.391 6 128165148.207 6      -222.414          39.000    24389022.609 5
  99868957.242 5      -173.340          35.000                                  
                                
  23021516.055 7 120978858.820 7     -3197.629          42.000    23021524.430 6
  94269262.230 6     -2491.664          39.000    23021527.438 7  90341401.793 7
     -2387.785          45.000  
  21644005.469 7 113740015.285 7      -257.441          45.000    21644011.023 7
  88628613.855 7      -200.523          43.000    21644009.914 7  84935741.926 7
      -192.262          46.000  
  23840834.195 7 125284426.297 7      3678.242          42.000    23840847.922 6
  97624302.566 6      2866.141          39.000    23840847.094 7  93556607.570 7
      2746.730          43.000  
  20728028.813 7 108926525.508 7       269.430          47.000    20728030.414 7
  84877816.391 7       209.938          45.000    20728031.953 8  81341248.578 8
       201.227          51.000  
  21751436.938 7 114304574.285 7      2221.672          46.000    21751439.125 7
  89068506.875 7      1731.133          45.000                                  
                                
  21583728.602 8 113423254.688 8       152.211          49.000    21583731.914 7
  88381765.004 7       118.652          46.000    21583728.438 8  84699181.422 8
       113.676          48.000  
 24 12 03 02 31 50.0000000  0  8G10G21G23G25G26G28G31G32
  20570554.648 8 108098988.586 8      -950.762          50.000    20570558.047 7
  84232991.016 7      -740.867          47.000    20570554.859 8  80723268.230 8
      -709.969          51.000  
  24389231.266 6 128166267.090 6      -225.375          39.000    24389235.539 5
  99869829.055 5      -175.602          35.000                                  
                                
  23024559.461 7 120994851.980 7     -3199.941          42.000    23024567.852 6
  94281724.344 6     -2493.461          39.000    23024570.859 7  90353344.664 7
     -2389.645          44.000  
  21644252.242 7 113741312.078 7      -261.637          45.000    21644257.789 7
  88629624.355 7      -203.930          43.000    21644256.672 7  84936710.297 7
      -195.309          46.000  
  23837334.758 6 125266036.738 6      3677.262          41.000    23837348.469 6
  97609973.082 6      2865.426          39.000    23837347.336 7  93542875.148 7
      2745.996          43.000  
  20727773.758 7 108925185.219 7       266.324          47.000    20727775.359 7
  84876771.988 7       207.539          45.000    20727776.914 8  81340247.707 8
       198.871          51.000  
  21749324.359 7 114293472.637 7      2218.707          45.000    21749326.539 7
  89059856.242 7      1728.844          45.000                                  
                                
  21583584.219 8 113422495.965 8       150.977          49.000    21583587.555 7
  88381173.789 7       117.680          46.000    21583584.078 8  84698614.840 8
       112.703          48.000  
 24 12 03 02 31 55.0000000  0  8G10G21G23G25G26G28G31G32
  20571460.148 8 108103747.137 8      -953.059          50.000    20571463.578 7
  84236698.961 7      -742.594          47.000    20571460.391 8  80726821.668 8
      -711.660          51.000  
  24389446.172 6 128167396.668 6      -226.746          39.000    24389450.516 5
  99870709.254 5      -176.680          35.000                                  
                                
  23027604.398 7 121010853.199 7     -3200.801          42.000    23027612.813 6
  94294192.773 6     -2494.133          39.000    23027615.813 7  90365293.535 7
     -2390.238          45.000  
  21644502.273 7 113742626.008 7      -264.313          45.000    21644507.813 7
  88630648.184 7      -205.961          43.000    21644506.695 7  84937691.469 7
      -197.332          46.000  
  23833835.477 6 125247648.008 6      3677.832          41.000    23833848.703 6
  97595644.223 6      2865.922          39.000    23833848.055 7  93529143.352 7
      2746.426          43.000  
  20727520.945 7 108923856.684 7       264.781          47.000    20727522.563 7
  84875736.797 7       206.316          45.000    20727524.109 8  81339255.617 8
       197.742          51.000  
  21747213.891 7 114282382.078 7      2217.246          45.000    21747216.094 7
  89051214.258 7      1727.699          45.000                                  
                                
  21583440.313 8 113421739.738 8       151.156          49.000    21583443.648 7
  88380584.512 7       117.824          46.000    21583440.188 8  84698050.109 8
       112.871          48.000  
 24 12 03 02 32  0.0000000  0  8G10G21G23G25G26G28G31G32
  20572368.133 8 108108518.691 8      -956.496          50.000    20572371.578 7
  84240417.031 7      -745.293          47.000    20572368.406 8  80730384.820 8
      -714.242          51.000  
  24389662.711 6 128168534.777 6      -229.359          39.000    24389667.109 5
  99871596.082 5      -178.738          35.000                                  
                                
  23030650.461 7 121026860.277 7     -3202.848          42.000    23030658.891 6
  94306665.758 6     -2495.730          39.000    23030661.875 7  90377246.789 7
     -2391.695          45.000  
  21644755.148 7 113743954.875 7      -268.152          45.000    21644760.680 7
  88631683.648 7      -208.957          43.000    21644759.555 7  84938683.793 7
      -200.242          46.000  
  23830335.945 6 125229257.977 6      3677.188          41.000    23830349.148 6
  97581314.363 6      2865.418          39.000    23830348.500 7  93515410.578 7
      2746.004          42.000  
  20727269.961 7 108922537.762 7       261.965          47.000    20727271.570 7
  84874709.047 7       204.125          45.000    20727273.133 8  81338270.699 8
       195.629          51.000  
  21745105.109 7 114271300.453 7      2214.566          45.000    21745107.328 7
  89042579.230 7      1725.574          45.000                                  
                                
  21583296.477 8 113420983.871 8       150.207          49.000    21583299.813 7
  88379995.520 7       117.008          46.000    21583296.375 8  84697485.648 8
       112.168          48.000  
 24 12 03 02 32  5.0000000  0  8G10G21G23G25G26G28G31G32
  20573279.125 8 108113306.016 8      -959.113          50.000    20573282.586 7
  84244147.398 7      -747.305          47.000    20573279.422 8  80733959.754 8
      -716.188          51.000  
  24389881.414 6 128169684.246 6      -231.262          39.000    24389885.867 5
  99872491.734 5      -180.242          35.000                                  
                                
  23033698.172 7 121042876.047 7     -3204.055          42.000    23033706.609 6
  94319145.492 6     -2496.668          39.000    23033709.984 7  90389206.527 7
     -2392.652          44.000  
  21645011.414 7 113745301.492 7      -271.207          45.000    21645016.945 7
  88632732.945 7      -211.258          43.000    21645015.797 7  84939689.371 7
      -202.477          46.000  
  23826836.703 6 125210869.434 6      3677.512          41.000    23826849.914 6
  97566985.672 6      2865.520          39.000    23826849.242 7  93501678.922 7
      2746.164          42.000  
  20727021.328 7 108921231.234 7       259.926          47.000    20727022.953 7
  84873690.969 7       202.512          45.000    20727024.523 8  81337295.035 8
       194.160          51.000  
  21742998.563 7 114260230.555 7      2212.695          45.000    21743000.805 7
  89033953.336 7      1724.145          45.000                                  
                                
  21583153.234 8 113420231.137 8       150.090          49.000    21583156.570 7
  88379408.957 7       116.977          46.000    21583153.156 8  84696923.527 8
       112.145          48.000  
 24 12 03 02 32 10.0000000  0  8G10G21G23G25G26G28G31G32
  20574193.203 8 108118109.578 8      -962.273          50.000    20574196.695 7
  84247890.422 7      -749.785          47.000    20574193.523 8  80737546.813 8
      -718.551          51.000  
  24390102.359 6 128170845.473 6      -233.402          39.000    24390106.852 5
  99873396.559 5      -181.855          35.000                                  
                                
  23036747.625 7 121058900.914 7     -3205.832          42.000    23036756.063 6
  94331632.313 6     -2498.055          39.000    23036759.438 7  90401173.066 7
     -2393.953          44.000  
  21645271.141 7 113746666.313 7      -274.719          45.000    21645276.656 7
  88633796.438 7      -214.043          43.000    21645275.508 7  84940708.547 7
      -205.109          46.000  
  23823337.828 6 125192482.836 6      3677.152          41.000    23823351.055 6
  97552658.492 6      2865.270          39.000    23823350.367 7  93487948.730 7
      2745.805          42.000  
  20726775.133 7 108919937.527 7       257.523          47.000    20726776.766 7
  84872682.871 7       200.684          45.000    20726778.352 8  81336328.953 8
       192.305          51.000  
  21740894.336 7 114249172.832 7      2210.453          46.000    21740896.594 7
  89025336.930 7      1722.434          45.000                                  
                                
  21583010.680 8 113419482.020 8       149.480          49.000    21583014.023 7
  88378825.219 7       116.508          46.000    21583010.625 8  84696364.113 8
       111.602          48.000  
 24 12 03 02 32 15.0000000  0  8G10G21G23G25G26G28G31G32
  20575109.344 8 108122923.934 8      -964.453          50.000    20575112.867 7
  84251641.863 7      -751.559          47.000    20575109.680 8  80741141.930 8
      -720.184          51.000  
  24390324.500 6 128172012.984 6      -234.578          39.000    24390329.031 5
  99874306.277 5      -182.711          35.000                                  
                                
  23039797.773 7 121074929.418 7     -3206.488          42.000    23039806.211 6
  94344121.988 6     -2498.570          39.000    23039809.586 7  90413142.320 7
     -2394.461          44.000  
  21645533.297 7 113748043.879 7      -277.293          45.000    21645538.781 7
  88634869.863 7      -215.977          43.000    21645537.641 7  84941737.250 7
      -207.047          46.000  
  23819838.289 6 125174092.750 6      3677.949          41.000    23819851.555 6
  97538328.617 6      2865.855          40.000    23819850.828 7  93474215.906 7
      2746.539          42.000  
  20726530.344 7 108918651.199 7       256.086          47.000    20726531.984 7
  84871680.527 7       199.578          45.000    20726533.578 8  81335368.379 8
       191.238          51.000  
  21738791.383 7 114238121.828 7      2209.125          46.000    21738793.656 7
  89016725.770 7      1721.418          45.000                                  
                                
  21582867.766 8 113418731.020 8       149.938          49.000    21582871.109 7
  88378240.023 7       116.848          46.000    21582867.727 8  84695803.289 8
       112.004          48.000  
 24 12 03 02 32 20.0000000  0  8G10G21G23G25G26G28G31G32
  20576028.047 8 108127751.754 8      -967.293          50.000    20576031.586 8
  84255403.770 8      -753.703          48.000    20576028.398 8  80744747.098 8
      -722.340          51.000  
  24390548.352 6 128173189.465 6      -236.547          39.000    24390552.930 5
  99875223.000 5      -184.277          35.000                                  
                                
  23042849.117 7 121090964.223 7     -3207.965          43.000    23042857.570 6
  94356616.578 6     -2499.715          39.000    23042860.930 7  90425116.277 7
     -2395.570          44.000  
  21645798.383 7 113749436.848 7      -280.535          45.000    21645803.844 7
  88635955.297 7      -218.609          44.000    21645802.703 7  84942777.445 7
      -209.445          46.000  
  23816338.594 6 125155701.875 6      3677.813          41.000    23816351.883 6
  97523998.082 6      2865.887          40.000    23816351.148 7  93460482.512 7
      2746.410          43.000  
  20726287.461 7 108917374.914 7       253.844          47.000    20726289.117 7
  84870686.023 7       197.828          45.000    20726290.719 8  81334415.305 8
       189.578          51.000  
  21736690.219 7 114227080.227 7      2207.012          46.000    21736692.500 7
  89008121.914 7      1719.820          45.000                                  
                                
  21582725.008 8 113417980.848 8       149.648          49.000    21582728.344 7
  88377655.461 7       116.629          46.000    21582725.000 8  84695243.090 8
       111.738          48.000  
 24 12 03 02 32 25.0000000  0  8G10G21G23G25G26G28G31G32
  20576949.516 8 108132594.117 8      -970.188          50.000    20576953.063 7
  84259177.027 7      -755.945          47.000    20576949.891 8  80748363.129 8
      -724.445          51.000  
  24390774.125 6 128174376.059 6      -238.434          39.000    24390778.742 5
  99876147.570 5      -185.828          35.000                                  
                                
  23045901.867 7 121107006.418 7     -3209.422          43.000    23045910.328 6
  94369116.898 6     -2500.855          39.000    23045913.672 7  90437095.746 7
     -2396.563          44.000  
  21646066.617 7 113750846.328 7      -283.703          45.000    21646072.039 7
  88637053.570 7      -221.066          43.000    21646070.906 7  84943829.965 7
      -211.832          46.000  
  23812838.953 6 125137311.301 6      3677.832          41.000    23812852.250 6
  97509667.813 6      2865.816          40.000    23812851.531 7  93446749.344 7
      2746.453          43.000  
  20726046.703 7 108916109.762 7       251.660          47.000    20726048.367 7
  84869700.164 7       196.125          45.000    20726050.078 8  81333470.535 8
       187.930          51.000  
  21734591.055 7 114216049.113 7      2205.008          46.000    21734593.336 7
  88999526.254 7      1718.160          45.000                                  
                                
  21582582.617 8 113417232.586 8       149.332          49.000    21582585.938 7
  88377072.395 7       116.289          46.000    21582582.625 8  84694684.313 8
       111.480          48.000  
 24 12 03 02 32 30.0000000  0  8G10G21G23G25G26G28G31G32
  20577873.750 8 108137451.445 8      -972.941          50.000    20577877.500 7
  84262961.938 7      -758.113          47.000    20577874.422 8  80751990.340 8
      -726.535          51.000  
  24391001.547 6 128175573.176 6      -240.570          39.000    24391006.750 5
  99877080.398 5      -187.406          35.000                                  
                                
  23048956.258 7 121123056.402 7     -3210.785          43.000    23048965.047 6
  94381623.320 6     -2501.918          39.000    23048967.906 7  90449081.047 7
     -2397.633          44.000  
  21646338.133 7 113752272.754 7      -286.965          45.000    21646343.383 7
  88638165.074 7      -223.543          43.000    21646342.273 7  84944895.148 7
      -214.258          46.000  
  23809339.453 6 125118921.465 6      3677.914          41.000    23809352.750 6
  97495338.082 6      2865.949          40.000    23809352.055 7  93433016.707 7
      2746.387          43.000  
  20725808.078 7 108914856.133 7       249.535          47.000    20725809.828 7
  84868723.316 7       194.453          45.000    20725811.539 8  81332534.379 8
       186.383          51.000  
  21732493.859 7 114205028.914 7      2202.969          46.000    21732496.172 7
  88990939.082 7      1716.668          45.000                                  
                                
  21582440.656 8 113416486.660 8       148.949          49.000    21582443.992 7
  88376491.133 7       116.098          46.000    21582440.914 8  84694127.273 8
       111.262          48.000  
 24 12 03 02 32 35.0000000  0  8G10G21G23G25G26G28G31G32
  20578801.070 8 108142324.480 8      -976.469          50.000    20578804.805 7
  84266759.090 7      -760.895          47.000    20578801.742 8  80755629.270 8
      -729.203          51.000  
  24391231.469 6 128176781.465 6      -243.152          39.000    24391236.688 5
  99878021.887 5      -189.461          35.000                                  
                                
  23052012.125 7 121139114.918 7     -3212.844          43.000    23052020.930 6
  94394136.391 6     -2503.520          39.000    23052023.758 7  90461072.707 7
     -2399.180          44.000  
  21646612.945 7 113753716.840 7      -290.895          45.000    21646618.156 7
  88639290.320 7      -226.684          43.000    21646617.063 7  84945973.508 7
      -217.168          47.000  
  23805840.000 6 125100533.117 6      3677.211          41.000    23805853.539 6
  97481009.559 6      2865.301          40.000    23805852.875 7  93419285.180 7
      2745.984          43.000  
  20725571.852 7 108913614.785 7       246.738          47.000    20725573.609 7
  84867756.039 7       192.266          45.000    20725575.328 8  81331607.395 8
       184.242          51.000  
  21730398.992 7 114194020.371 7      2200.242          46.000    21730401.281 7
  88982360.992 7      1714.531          45.000                                  
                                
  21582299.297 8 113415743.809 8       147.980          49.000    21582302.578 7
  88375912.281 7       115.270          46.000    21582299.570 8  84693572.535 8
       110.516          48.000  
 24 12 03 02 32 40.0000000  0  8G10G21G23G25G26G28G31G32
  20579731.688 8 108147214.828 8      -979.863          50.000    20579735.398 7
  84270569.734 7      -763.504          47.000    20579732.359 8  80759281.137 8
      -731.738          51.000  
  24391463.836 6 128178002.555 6      -245.480          39.000    24391469.070 5
  99878973.359 5      -191.293          35.000                                  
                                
  23055069.922 7 121155183.555 7     -3214.840          43.000    23055078.719 6
  94406657.309 6     -2505.074          39.000    23055081.531 7  90473071.922 7
     -2400.645          44.000  
  21646891.422 7 113755180.191 7      -294.680          45.000    21646896.578 7
  88640430.594 7      -229.637          43.000    21646895.531 7  84947066.270 7
      -220.086          46.000  
  23802341.367 6 125082147.859 6      3676.645          41.000    23802354.938 6
  97466683.414 6      2864.934          40.000    23802353.992 7  93405555.977 7
      2745.570          44.000  
  20725338.266 7 108912387.309 7       244.043          47.000    20725340.031 7
  84866799.543 7       190.184          45.000    20725341.758 8  81330690.766 8
       182.211          51.000  
  21728306.648 7 114183025.066 7      2197.754          46.000    21728308.914 7
  88973793.242 7      1712.438          45.000                                  
                                
  21582158.828 8 113415005.641 8       147.125          49.000    21582162.086 7
  88375337.074 7       114.613          46.000    21582159.117 8  84693021.293 8
       109.887          48.000  
 24 12 03 02 32 45.0000000  0  8G10G21G23G25G26G28G31G32
  20580665.367 8 108152121.297 8      -983.078          50.000    20580669.063 8
  84274392.941 8      -765.996          48.000    20580666.047 8  80762945.031 8
      -734.121          51.000  
  24391698.422 6 128179235.297 6      -247.785          39.000    24391703.695 5
  99879933.926 5      -193.066          35.000                                  
                                
  23058129.430 7 121171261.105 7     -3216.508          43.000    23058138.219 6
  94419185.215 6     -2506.375          39.000    23058141.008 7  90485077.809 7
     -2401.883          44.000  
  21647173.328 7 113756661.633 7      -298.227          45.000    21647178.414 7
  88641584.957 7      -232.348          43.000    21647177.438 7  84948172.543 7
      -222.727          46.000  
  23798843.102 6 125063764.543 6      3676.340          41.000    23798856.469 6
  97452358.793 6      2864.582          40.000    23798855.773 7  93391828.219 7
      2745.305          44.000  
  20725107.094 7 108911172.512 7       241.574          47.000    20725108.867 7
  84865852.945 7       188.266          45.000    20725110.594 8  81329783.605 8
       180.402          51.000  
  21726216.602 7 114172041.848 7      2195.352          45.000    21726218.836 7
  88965234.887 7      1710.684          45.000                                  
                                
  21582019.023 8 113414270.961 8       146.477          49.000    21582022.266 7
  88374764.594 7       114.109          46.000    21582019.320 8  84692472.668 8
       109.375          48.000  
 24 12 03 02 32 50.0000000  0  8G10G21G23G25G26G28G31G32
  20581601.836 8 108157042.422 8      -985.879          50.000    20581605.516 7
  84278227.559 7      -768.141          47.000    20581602.523 8  80766619.879 8
      -736.160          51.000  
  24391934.945 6 128180478.188 6      -249.758          40.000    24391940.242 5
  99880902.422 5      -194.641          35.000                                  
                                
  23061190.344 7 121187346.133 7     -3217.906          43.000    23061199.141 6
  94431718.930 6     -2507.461          39.000    23061201.906 7  90497089.273 7
     -2402.949          44.000  
  21647458.406 7 113758159.719 7      -301.488          45.000    21647463.445 7
  88642752.289 7      -234.863          43.000    21647462.516 7  84949291.219 7
      -225.063          46.000  
  23795344.930 6 125045381.680 6      3676.438          41.000    23795358.313 6
  97438034.543 6      2864.621          40.000    23795357.656 7  93378100.809 7
      2745.336          44.000  
  20724878.070 7 108909968.926 7       239.461          47.000    20724879.844 7
  84864915.105 7       186.590          45.000    20724881.570 8  81328884.820 8
       178.809          51.000  
  21724128.578 7 114161069.262 7      2193.250          45.000    21724130.773 7
  88956684.824 7      1709.059          45.000                                  
                                
  21581879.602 8 113413538.332 8       146.172          49.000    21581882.844 7
  88374193.703 7       113.902          46.000    21581879.914 8  84691925.559 8
       109.156          48.000  
 24 12 03 02 32 55.0000000  0  8G10G21G23G25G26G28G31G32
  20582541.133 8 108161978.367 8      -988.684          50.000    20582544.789 7
  84282073.738 7      -770.348          47.000    20582541.820 8  80770305.793 8
      -738.293          51.000  
  24392173.438 6 128181731.355 6      -251.633          40.000    24392178.734 5
  99881878.863 5      -196.082          35.000                                  
                                
  23064252.703 7 121203438.738 7     -3219.246          43.000    23064261.508 6
  94444258.555 6     -2508.504          39.000    23064264.664 7  90509106.398 7
     -2403.934          44.000  
  21647746.664 7 113759674.551 7      -304.668          44.000    21647751.680 7
  88643932.680 7      -237.359          43.000    21647750.781 7  84950422.422 7
      -227.473          47.000  
  23791846.891 6 125026999.508 6      3676.355          41.000    23791860.250 6
  97423710.773 6      2864.785          40.000    23791859.641 7  93364373.898 7
      2745.355          44.000  
  20724651.203 7 108908776.711 7       237.242          47.000    20724652.977 7
  84863986.086 7       184.867          45.000    20724654.703 8  81327994.516 8
       177.223          51.000  
  21722042.617 7 114150107.457 7      2191.289          45.000    21722044.766 7
  88948143.156 7      1707.586          45.000                                  
                                
  21581740.602 8 113412807.891 8       145.809          49.000    21581743.844 7
  88373624.516 7       113.668          46.000    21581740.922 8  84691380.086 8
       108.973          48.000  
 24 12 03 02 33  0.0000000  0  8G10G21G23G25G26G28G31G32
  20583483.438 8 108166930.137 8      -992.605          50.000    20583487.078 7
  84285932.242 7      -773.461          47.000    20583484.125 8  80774003.516 8
      -741.203          51.000  
  24392414.078 6 128182995.840 6      -254.652          40.000    24392419.375 5
  99882864.148 5      -198.418          35.000                                  
                                
  23067316.711 7 121219539.957 7     -3221.801          43.000    23067325.508 6
  94456804.871 6     -2510.500          39.000    23067328.641 7  90521129.949 7
     -2405.824          44.000  
  21648038.313 7 113761207.195 7      -308.918          45.000    21648043.328 7
  88645126.938 7      -240.727          43.000    21648042.445 7  84951566.922 7
      -230.668          47.000  
  23788349.164 6 125008618.973 6      3675.328          41.000    23788362.492 6
  97409388.316 6      2863.934          40.000    23788361.945 7  93350648.223 7
      2744.520          44.000  
  20724426.695 7 108907596.859 7       234.070          47.000    20724428.461 7
  84863066.707 7       182.395          45.000    20724430.188 8  81327113.453 8
       174.797          51.000  
  21719958.891 7 114139157.441 7      2188.191          45.000    21719961.016 7
  88939610.680 7      1705.156          45.000                                  
                                
  21581602.211 8 113412080.656 8       144.496          49.000    21581605.461 7
  88373057.824 7       112.652          46.000    21581602.547 8  84690837.016 8
       107.883          48.000  
 24 12 03 02 33  5.0000000  0  8G10G21G23G25G26G28G31G32
  20584429.133 8 108171899.766 8      -995.238          50.000    20584432.773 7
  84289804.664 7      -775.496          47.000    20584429.828 8  80777714.586 8
      -743.160          51.000  
  24392657.273 6 128184273.684 6      -256.441          40.000    24392662.547 5
  99883859.852 5      -199.820          35.000                                  
                                
  23070382.719 7 121235651.809 7     -3222.969          43.000    23070391.531 6
  94469359.480 6     -2511.410          39.000    23070394.641 7  90533161.445 7
     -2406.762          44.000  
  21648333.727 7 113762759.668 7      -311.867          45.000    21648338.773 7
  88646336.664 7      -243.102          43.000    21648337.883 7  84952726.242 7
      -232.977          46.000  
  23784852.148 6 124990242.164 6      3675.582          41.000    23784865.469 6
  97395068.797 6      2864.066          40.000    23784864.953 7  93336925.340 7
      2744.719          44.000  
  20724204.930 7 108906431.406 7       232.109          47.000    20724206.695 7
  84862158.559 7       180.852          45.000    20724208.414 8  81326243.145 8
       173.352          51.000  
  21717877.797 7 114128221.270 7      2186.355          45.000    21717879.898 7
  88931089.004 7      1703.652          45.000                                  
                                
  21581464.813 8 113411358.660 8       144.359          49.000    21581468.078 7
  88372495.238 7       112.504          46.000    21581465.156 8  84690297.859 8
       107.824          48.000  
 24 12 03 02 33 10.0000000  0  8G10G21G23G25G26G28G31G32
  20585377.422 8 108176883.023 8      -997.992          50.000    20585381.063 7
  84293687.707 7      -777.668          47.000    20585378.125 8  80781435.824 8
      -745.266          51.000  
  24392902.219 6 128185560.633 6      -258.316          41.000    24392907.453 5
  99884862.676 5      -201.336          35.000                                  
                                
  23073449.953 7 121251770.020 7     -3224.242          43.000    23073458.781 6
  94481919.078 6     -2512.398          39.000    23073461.844 7  90545197.684 7
     -2407.801          44.000  
  21648632.109 7 113764327.738 7      -315.109          45.000    21648637.188 7
  88647558.520 7      -245.582          43.000    21648636.281 7  84953897.184 7
      -235.340          46.000  
  23781355.039 6 124971864.867 6      3675.461          41.000    23781368.344 6
  97380748.852 6      2864.070          40.000    23781367.852 7  93323202.070 7
      2744.656          44.000  
  20723985.094 7 108905276.113 7       230.086          47.000    20723986.859 7
  84861258.340 7       179.266          45.000    20723988.570 8  81325380.414 8
       171.820          51.000  
  21715798.531 7 114117294.703 7      2184.410          46.000    21715800.609 7
  88922574.809 7      1702.012          45.000                                  
                                
  21581327.617 8 113410637.688 8       144.121          49.000    21581330.891 7
  88371933.430 7       112.281          46.000    21581327.961 8  84689759.457 8
       107.613          48.000  
 24 12 03 02 33 15.0000000  0  8G10G21G23G25G26G28G31G32
  20586328.422 8 108181880.512 8     -1000.781          50.000    20586332.047 7
  84297581.832 7      -779.832          47.000    20586329.133 8  80785167.695 8
      -747.340          51.000  
  24393149.016 6 128186857.289 6      -260.184          41.000    24393154.188 5
  99885873.004 5      -202.738          35.000                                  
                                
  23076518.508 7 121267895.227 7     -3225.617          43.000    23076527.352 6
  94494484.098 6     -2513.473          39.000    23076530.383 7  90557239.141 7
     -2408.684          44.000  
  21648933.586 7 113765912.000 7      -318.305          45.000    21648938.680 7
  88648792.996 7      -248.039          43.000    21648937.758 7  84955080.223 7
      -237.703          46.000  
  23777857.953 7 124953487.672 7      3675.527          42.000    23777871.266 6
  97366429.004 6      2864.012          40.000    23777870.758 7  93309478.875 7
      2744.711          44.000  
  20723767.305 7 108904131.578 7       227.930          47.000    20723769.063 7
  84860366.477 7       177.629          45.000    20723770.852 8  81324525.723 8
       170.227          51.000  
  21713721.219 7 114106378.375 7      2182.285          45.000    21713723.266 7
  88914068.559 7      1700.559          45.000                                  
                                
  21581190.727 8 113409918.332 8       143.813          49.000    21581194.000 7
  88371372.875 7       112.051          46.000    21581191.078 8  84689222.262 8
       107.402          48.000  
 24 12 03 02 33 20.0000000  0  8G10G21G23G25G26G28G31G32
  20587282.711 8 108186894.750 8     -1004.168          50.000    20587286.250 7
  84301489.012 7      -782.453          47.000    20587283.531 8  80788912.078 8
      -749.867          51.000  
  24393398.367 6 128188166.176 6      -262.742          41.000    24393403.438 5
  99886892.918 5      -204.801          35.000                                  
                                
  23079589.242 7 121284029.914 7     -3227.605          43.000    23079598.344 6
  94507056.520 6     -2515.027          39.000    23079600.734 7  90569287.695 7
     -2410.262          44.000  
  21649238.625 7 113767515.008 7      -322.227          45.000    21649243.570 7
  88650042.078 7      -251.066          43.000    21649242.859 7  84956277.266 7
      -240.621          47.000  
  23774361.383 7 124935113.141 7      3675.008          42.000    23774374.672 6
  97352111.234 6      2863.473          40.000    23774374.188 7  93295757.684 7
      2744.148          44.000  
  20723552.094 7 108903000.332 7       225.195          47.000    20723553.867 7
  84859484.992 7       175.438          45.000    20723555.570 8  81323680.949 8
       168.152          51.000  
  21711646.258 7 114095474.793 7      2179.715          45.000    21711648.000 7
  88905572.273 7      1698.457          45.000                                  
                                
  21581054.617 8 113409203.129 8       142.875          49.000    21581057.813 7
  88370815.566 7       111.320          46.000    21581055.094 8  84688688.176 8
       106.637          48.000  
 24 12 03 02 33 25.0000000  0  8G10G21G23G25G26G28G31G32
  20588239.758 8 108191924.078 8     -1007.352          50.000    20588243.297 7
  84305407.945 7      -784.871          47.000    20588240.594 8  80792667.719 8
      -752.191          51.000  
  24393649.547 6 128189485.598 6      -264.879          41.000    24393654.492 5
  99887920.965 5      -206.387          35.000                                  
                                
  23082661.086 7 121300172.406 7     -3229.164          43.000    23082670.188 6
  94519634.988 6     -2516.238          40.000    23082672.570 7  90581342.066 7
     -2411.449          44.000  
  21649546.914 7 113769135.051 7      -325.637          45.000    21649551.891 7
  88651304.441 7      -253.727          43.000    21649551.156 7  84957487.027 7
      -243.191          47.000  
  23770864.750 6 124916739.586 6      3674.551          41.000    23770878.289 6
  97337794.223 6      2863.363          40.000    23770877.805 7  93282037.230 7
      2744.008          45.000  
  20723339.047 7 108901880.664 7       222.836          47.000    20723340.805 7
  84858612.492 7       173.660          45.000    20723342.500 8  81322844.832 8
       166.375          51.000  
  21709573.469 7 114084582.281 7      2177.496          45.000    21709575.219 7
  88897084.609 7      1696.758          45.000                                  
                                
  21580918.992 8 113408490.391 8       142.293          49.000    21580922.180 7
  88370260.180 7       110.891          45.000    21580919.469 8  84688155.922 8
       106.266          48.000  
 24 12 03 02 33 30.0000000  0  8G10G21G23G25G26G28G31G32
  20589199.313 8 108196966.574 8     -1009.582          50.000    20589202.852 7
  84309337.152 7      -786.688          47.000    20589200.156 8  80796433.207 8
      -753.910          51.000  
  24393902.359 6 128190813.680 6      -266.203          41.000    24393907.234 5
  99888955.824 5      -207.426          35.000                                  
                                
  23085734.047 7 121316320.824 7     -3230.055          43.000    23085743.172 6
  94532218.098 6     -2516.930          40.000    23085745.523 7  90593400.855 7
     -2412.016          44.000  
  21649858.086 7 113770770.242 7      -328.266          45.000    21649863.086 7
  88652578.613 7      -255.746          43.000    21649862.336 7  84958708.109 7
      -245.164          47.000  
  23767368.211 6 124898365.148 6      3675.230          41.000    23767381.734 6
  97323476.523 6      2863.797          40.000    23767381.102 7  93268316.098 7
      2744.527          45.000  
  20723127.836 7 108900770.715 7       221.250          47.000    20723129.594 7
  84857747.590 7       172.398          45.000    20723131.273 8  81322015.965 8
       165.219          51.000  
  21707502.430 7 114073698.984 7      2175.984          45.000    21707504.188 7
  88888604.121 7      1695.523          45.000                                  
                                
  21580783.484 8 113407778.246 8       142.578          49.000    21580786.648 7
  88369705.246 7       111.090          45.000    21580783.945 8  84687624.117 8
       106.469          48.000  
 24 12 03 02 33 35.0000000  0  8G10G21G23G25G26G28G31G32
  20590161.219 8 108202021.438 8     -1012.449          50.000    20590164.766 7
  84313275.992 7      -788.922          47.000    20590162.070 8  80800207.918 8
      -756.070          51.000  
  24394156.648 6 128192149.543 6      -268.180          41.000    24394161.438 5
  99889996.750 5      -208.930          35.000                                  
                                
  23088807.984 7 121332474.277 7     -3231.430          44.000    23088817.117 6
  94544805.137 6     -2518.000          40.000    23088819.453 7  90605463.418 7
     -2413.059          43.000  
  21650171.977 7 113772419.762 7      -331.559          45.000    21650177.008 7
  88653863.945 7      -258.332          43.000    21650176.242 7  84959939.879 7
      -247.578          46.000  
  23763871.336 7 124879988.977 7      3675.281          42.000    23763884.469 6
  97309157.469 6      2863.766          40.000    23763884.234 7  93254593.707 7
      2744.371          44.000  
  20722918.313 7 108899669.602 7       219.176          47.000    20722920.063 7
  84856889.586 7       170.770          45.000    20722921.734 8  81321193.699 8
       163.629          51.000  
  21705432.977 7 114062824.000 7      2173.973          46.000    21705434.742 7
  88880130.113 7      1694.035          45.000                                  
                                
  21580647.922 8 113407065.836 8       142.293          49.000    21580651.094 7
  88369150.121 7       110.906          46.000    21580648.383 8  84687092.113 8
       106.246          48.000  
 24 12 03 02 33 40.0000000  0  8G10G21G23G25G26G28G31G32
  20591125.781 8 108207090.242 8     -1015.238          50.000    20591129.336 7
  84317225.695 7      -791.094          47.000    20591126.633 8  80803993.047 8
      -758.086          51.000  
  24394412.719 6 128193494.789 6      -270.129          41.000    24394417.430 5
  99891044.957 5      -210.500          35.000                                  
                                
  23091883.188 7 121348634.387 7     -3232.707          43.000    23091892.320 6
  94557397.371 6     -2519.000          40.000    23091894.641 7  90617530.941 7
     -2414.078          43.000  
  21650488.906 7 113774085.207 7      -334.703          45.000    21650493.977 7
  88655161.688 7      -260.781          43.000    21650493.172 7  84961183.555 7
      -249.969          46.000  
  23760374.438 7 124861612.734 7      3675.188          42.000    23760387.555 6
  97294838.344 6      2863.887          39.000    23760387.328 7  93240871.223 7
      2744.395          44.000  
  20722710.773 7 108898578.949 7       217.109          47.000    20722712.531 7
  84856039.734 7       169.160          45.000    20722714.180 8  81320379.254 8
       162.051          51.000  
  21703365.414 7 114051958.965 7      2171.977          46.000    21703367.211 7
  88871663.863 7      1692.453          45.000                                  
                                
  21580512.617 8 113406354.793 8       142.063          49.000    21580515.797 7
  88368596.047 7       110.734          46.000    21580513.070 8  84686561.125 8
       106.059          48.000  
 24 12 03 02 33 45.0000000  0  8G10G21G23G25G26G28G31G32
  20592093.117 8 108212173.613 8     -1017.996          50.000    20592096.680 7
  84321186.746 7      -793.238          47.000    20592093.969 8  80807789.047 8
      -760.152          51.000  
  24394670.680 6 128194850.031 6      -271.945          41.000    24394675.328 5
  99892100.938 5      -211.863          35.000                                  
                                
  23094959.766 7 121364801.773 7     -3234.066          43.000    23094968.906 6
  94569995.242 6     -2520.055          40.000    23094971.609 7  90629603.914 7
     -2415.105          43.000  
  21650808.984 7 113775767.195 7      -337.895          45.000    21650814.086 7
  88656472.320 7      -263.293          43.000    21650813.250 7  84962439.578 7
      -252.383          46.000  
  23756877.656 7 124843237.027 7      3675.250          42.000    23756890.734 6
  97280519.652 6      2863.688          39.000    23756890.516 7  93227149.145 7
      2744.402          44.000  
  20722505.336 7 108897499.375 7       215.031          47.000    20722507.086 7
  84855198.484 7       167.547          45.000    20722508.734 8  81319573.066 8
       160.531          51.000  
  21701299.867 7 114041104.500 7      2169.980          45.000    21701301.688 7
  88863205.836 7      1690.855          45.000                                  
                                
  21580377.695 8 113405645.730 8       141.809          49.000    21580380.875 7
  88368043.520 7       110.500          46.000    21580378.141 8  84686031.617 8
       105.902          48.000  
 24 12 03 02 33 50.0000000  0  8G10G21G23G25G26G28G31G32
  20593063.477 8 108217272.863 8     -1021.430          50.000    20593067.047 7
  84325160.168 7      -795.898          47.000    20593064.320 8  80811596.906 8
      -762.746          51.000  
  24394930.773 6 128196216.551 6      -274.535          40.000    24394935.398 5
  99893165.758 5      -213.941          35.000                                  
                                
  23098037.977 7 121380977.719 7     -3236.094          43.000    23098047.117 6
  94582599.805 6     -2521.637          39.000    23098049.813 7  90641683.246 7
     -2416.551          43.000  
  21651132.453 7 113777467.023 7      -341.750          45.000    21651137.570 7
  88657796.855 7      -266.238          43.000    21651136.711 7  84963708.918 7
      -255.234          46.000  
  23753381.219 7 124824863.164 7      3674.500          42.000    23753394.281 6
  97266202.371 6      2863.352          39.000    23753394.063 7  93213428.426 7
      2743.984          44.000  
  20722302.258 7 108896432.141 7       212.188          47.000    20722304.008 7
  84854366.879 7       165.340          45.000    20722305.633 8  81318776.098 8
       158.445          51.000  
  21699236.578 7 114030261.891 7      2167.316          45.000    21699238.438 7
  88854757.059 7      1688.816          45.000                                  
                                
  21580243.398 8 113404939.934 8       140.840          49.000    21580246.578 7
  88367493.551 7       109.707          46.000    21580243.836 8  84685504.555 8
       105.148          48.000  
 24 12 03 02 33 55.0000000  0  8G10G21G23G25G26G28G31G32
  20594036.930 8 108222388.328 8     -1024.895          50.000    20594040.500 7
  84329146.223 7      -798.617          47.000    20594037.766 8  80815416.875 8
      -765.352          51.000  
  24395193.078 6 128197594.715 6      -276.887          40.000    24395197.680 5
  99894239.637 5      -215.762          35.000                                  
                                
  23101117.867 7 121397162.527 7     -3237.859          43.000    23101127.023 6
  94595211.270 6     -2523.012          40.000    23101129.719 7  90653769.223 7
     -2417.934          43.000  
  21651459.391 7 113779185.043 7      -345.508          45.000    21651464.508 7
  88659135.566 7      -269.246          43.000    21651463.641 7  84964991.840 7
      -257.977          46.000  
  23749885.188 7 124806491.484 7      3674.047          42.000    23749898.234 6
  97251886.805 6      2862.883          39.000    23749898.039 7  93199709.348 7
      2743.684          43.000  
  20722101.586 7 108895377.621 7       209.594          47.000    20722103.344 7
  84853545.168 7       163.293          45.000    20722104.953 8  81317988.621 8
       156.512          51.000  
  21697175.609 7 114019431.496 7      2164.758          45.000    21697177.492 7
  88846317.789 7      1686.883          45.000                                  
                                
  21580109.781 8 113404237.770 8       139.980          49.000    21580112.961 7
  88366946.383 7       109.137          46.000    21580110.211 8  84684980.191 8
       104.559          48.000  
 24 12 03 02 34  0.0000000  0  8G10G21G23G25G26G28G31G32
  20595013.250 8 108227518.883 8     -1027.777          50.000    20595016.828 7
  84333144.055 7      -800.922          47.000    20595014.078 8  80819248.121 8
      -767.551          51.000  
  24395457.391 6 128198983.449 6      -279.047          40.000    24395461.953 5
  99895321.711 5      -217.434          35.000                                  
                                
  23104199.250 7 121413355.145 7     -3239.535          43.000    23104208.414 6
  94607828.813 6     -2524.320          39.000    23104211.102 7  90665861.023 7
     -2419.109          43.000  
  21651789.570 7 113780920.164 7      -348.891          45.000    21651794.695 7
  88660487.609 7      -271.906          43.000    21651793.820 7  84966287.543 7
      -260.535          46.000  
  23746389.375 6 124788120.957 6      3673.758          41.000    23746402.414 6
  97237572.145 6      2862.719          39.000    23746402.234 7  93185991.145 7
      2743.363          43.000  
  20721903.133 7 108894334.711 7       207.195          47.000    20721904.883 7
  84852732.492 7       161.465          45.000    20721906.492 8  81317209.816 8
       154.719          51.000  
  21695116.766 7 114008612.227 7      2162.500          45.000    21695118.688 7
  88837887.195 7      1685.090          45.000                                  
                                
  21579976.656 8 113403538.145 8       139.453          49.000    21579979.828 7
  88366401.223 7       108.648          46.000    21579977.078 8  84684457.742 8
       104.125          48.000  
 24 12 03 02 34  5.0000000  0  8G10G21G23G25G26G28G31G32
  20595992.344 8 108232663.965 8     -1030.145          50.000    20595995.906 7
  84337153.180 7      -802.711          47.000    20595993.156 8  80823090.195 8
      -769.250          51.000  
  24395723.578 6 128200382.090 6      -280.406          40.000    24395728.125 5
  99896411.539 5      -218.539          35.000                                  
                                
  23107281.984 7 121429554.887 7     -3240.297          43.000    23107291.156 6
  94620451.922 6     -2524.910          39.000    23107293.836 7  90677958.141 7
     -2419.648          43.000  
  21652122.891 7 113782671.734 7      -351.578          45.000    21652128.008 7
  88661852.465 7      -274.012          43.000    21652127.125 7  84967595.527 7
      -262.531          46.000  
  23742893.648 6 124769750.902 6      3674.211          41.000    23742906.703 6
  97223257.855 6      2863.066          39.000    23742906.508 7  93172273.277 7
      2743.828          44.000  
  20721706.758 7 108893302.754 7       205.621          47.000    20721708.508 7
  84851928.371 7       160.199          45.000    20721710.039 8  81316439.195 8
       153.559          51.000  
  21693059.922 7 113997803.457 7      2161.023          45.000    21693061.867 7
  88829464.781 7      1683.930          45.000                                  
                                
  21579843.891 8 113402840.414 8       139.695          48.000    21579847.063 7
  88365857.531 7       108.789          46.000    21579844.297 8  84683936.707 8
       104.234          48.000  
 24 12 03 02 34 10.0000000  0  8G10G21G23G25G26G28G31G32
  20596974.195 8 108237823.262 8     -1033.648          50.000    20596977.789 7
  84341173.395 7      -805.457          47.000    20596975.039 8  80826942.898 8
      -771.871          51.000  
  24395992.266 6 128201790.375 6      -282.938          40.000    24395996.313 5
  99897508.902 5      -220.469          35.000                                  
                                
  23110366.336 7 121445761.523 7     -3242.383          43.000    23110375.758 6
  94633080.379 6     -2526.535          39.000    23110377.883 7  90690060.414 7
     -2421.230          43.000  
  21652459.320 7 113784439.539 7      -355.555          44.000    21652464.617 7
  88663229.961 7      -277.008          43.000    21652463.578 7  84968915.629 7
      -265.461          46.000  
  23739397.977 6 124751381.121 6      3673.605          41.000    23739411.055 6
  97208943.781 6      2862.418          39.000    23739410.852 7  93158555.637 7
      2743.203          44.000  
  20721512.492 7 108892281.500 7       202.840          47.000    20721514.227 7
  84851132.586 7       158.043          45.000    20721515.695 8  81315676.563 8
       151.484          51.000  
  21691004.945 7 113987004.945 7      2158.363          45.000    21691007.086 7
  88821050.363 7      1681.805          45.000                                  
                                
  21579711.500 8 113402144.352 8       138.688          48.000    21579714.656 7
  88365315.133 7       108.051          46.000    21579711.859 8  84683416.910 8
       103.535          48.000  
 24 12 03 02 34 15.0000000  0  8G10G21G23G25G26G28G31G32
  20597959.117 8 108242998.879 8     -1036.375          50.000    20597962.648 7
  84345206.313 7      -807.527          47.000    20597959.930 8  80830807.777 8
      -773.891          51.000  
  24396262.484 6 128203210.391 6      -284.766          39.000    24396266.523 5
  99898615.355 5      -221.895          35.000                                  
                                
  23113452.078 7 121461977.094 7     -3243.656          42.000    23113461.516 6
  94645715.809 6     -2527.527          39.000    23113463.633 7  90702169.352 7
     -2422.156          43.000  
  21652799.195 7 113786225.617 7      -358.676          44.000    21652804.484 7
  88664621.711 7      -279.504          43.000    21652803.445 7  84970249.387 7
      -267.852          46.000  
  23735902.633 6 124733013.676 6      3673.680          41.000    23735915.844 6
  97194631.531 6      2862.563          39.000    23735915.633 7  93144839.734 7
      2743.258          44.000  
  20721320.586 7 108891273.016 7       200.809          47.000    20721322.313 7
  84850346.730 7       156.500          45.000    20721323.789 8  81314923.469 8
       149.930          51.000  
  21688952.422 7 113976218.777 7      2156.309          45.000    21688954.539 7
  88812645.539 7      1680.363          45.000                                  
                                
  21579579.758 8 113401452.012 8       138.512          48.000    21579582.898 7
  88364775.645 7       107.906          46.000    21579580.102 8  84682899.891 8
       103.418          48.000  
 24 12 03 02 34 20.0000000  0  8G10G21G23G25G26G28G31G32
  20598947.180 8 108248191.004 8     -1039.879          50.000    20598950.664 7
  84349252.109 7      -810.242          47.000    20598947.961 8  80834685.000 8
      -776.555          51.000  
  24396534.969 6 128204642.309 6      -287.348          39.000    24396539.023 5
  99899731.109 5      -223.918          35.000                                  
                                
  23116539.563 7 121478201.797 7     -3245.688          42.000    23116549.008 6
  94658358.383 6     -2529.113          39.000    23116551.109 7  90714285.113 7
     -2423.684          43.000  
  21653142.578 7 113788030.180 7      -362.559          44.000    21653147.891 7
  88666027.863 7      -282.555          43.000    21653146.836 7  84971596.945 7
      -270.746          46.000  
  23732407.898 6 124714648.840 6      3672.879          41.000    23732421.125 6
  97180321.285 6      2861.961          39.000    23732420.648 7  93131125.754 7
      2742.762          44.000  
  20721131.148 7 108890277.508 7       198.016          47.000    20721132.875 7
  84849571.008 7       154.281          45.000    20721134.344 8  81314180.059 8
       147.875          51.000  
  21686902.273 7 113965445.102 7      2153.703          45.000    21686904.391 7
  88804250.488 7      1678.207          45.000                                  
                                
  21579448.758 8 113400763.609 8       137.477          48.000    21579451.875 7
  88364239.219 7       107.105          46.000    21579449.102 8  84682385.820 8
       102.617          48.000  
 24 12 03 02 34 25.0000000  0  8G10G21G23G25G26G28G31G32
  20599937.906 8 108253397.164 8     -1042.566          50.000    20599941.359 7
  84353308.840 7      -812.344          47.000    20599938.664 8  80838572.688 8
      -778.492          51.000  
  24396809.250 6 128206083.645 6      -289.090          40.000    24396813.313 5
  99900854.188 5      -225.242          35.000                                  
                                
  23119628.305 7 121494433.168 7     -3246.813          43.000    23119637.758 6
  94671006.109 6     -2529.984          39.000    23119639.867 7  90726405.859 7
     -2424.594          43.000  
  21653489.023 7 113789850.777 7      -365.590          44.000    21653494.328 7
  88667446.504 7      -284.836          43.000    21653493.281 7  84972956.480 7
      -272.996          46.000  
  23728913.188 6 124696284.098 6      3673.047          41.000    23728926.203 6
  97166011.125 6      2862.199          39.000    23728925.945 7  93117411.875 7
      2742.879          44.000  
  20720943.719 7 108889292.508 7       196.066          47.000    20720945.430 7
  84848803.465 7       152.805          45.000    20720946.906 8  81313444.504 8
       146.398          51.000  
  21684854.047 7 113954681.527 7      2151.844          45.000    21684856.156 7
  88795863.297 7      1676.797          45.000                                  
                                
  21579318.039 8 113400076.680 8       137.320          48.000    21579321.133 7
  88363703.938 7       107.066          46.000    21579318.383 8  84681872.844 8
       102.535          48.000  
 24 12 03 02 34 30.0000000  0  8G10G21G23G25G26G28G31G32
  20600931.305 8 108258617.344 8     -1045.645          50.000    20600934.734 7
  84357376.504 7      -814.785          47.000    20600932.039 8  80842470.863 8
      -780.852          51.000  
  24397085.328 6 128207534.355 6      -291.234          40.000    24397089.391 5
  99901984.621 5      -226.934          35.000                                  
                                
  23122718.320 7 121510671.176 7     -3248.445          42.000    23122727.781 6
  94683659.023 6     -2531.258          39.000    23122729.883 7  90738531.559 7
     -2425.789          43.000  
  21653838.508 7 113791687.348 7      -369.082          44.000    21653843.797 7
  88668877.602 7      -287.578          43.000    21653842.766 7  84974327.949 7
      -275.637          46.000  
  23725418.492 6 124677919.438 6      3672.723          41.000    23725431.539 6
  97151701.055 6      2861.926          39.000    23725431.258 7  93103698.063 7
      2742.555          44.000  
  20720758.273 7 108888317.969 7       193.656          47.000    20720759.984 7
  84848044.098 7       150.918          45.000    20720761.461 8  81312716.758 8
       144.641          51.000  
  21682807.734 7 113943927.977 7      2149.512          45.000    21682809.828 7
  88787483.918 7      1674.949          45.000                                  
                                
  21579187.602 8 113399391.188 8       136.793          48.000    21579190.680 7
  88363169.805 7       106.527          46.000    21579187.938 8  84681360.949 8
       102.125          48.000  
 24 12 03 02 34 35.0000000  0  8G10G21G23G25G26G28G31G32
  20601927.805 8 108263853.832 8     -1048.953          50.000    20601931.203 7
  84361456.859 7      -817.379          47.000    20601928.516 8  80846381.203 8
      -783.355          51.000  
  24397363.641 6 128208996.797 6      -293.668          40.000    24397367.680 5
  99903124.121 5      -228.824          35.000                                  
                                
  23125810.023 7 121526918.074 7     -3250.367          43.000    23125819.500 6
  94696318.863 6     -2532.758          39.000    23125822.070 7  90750663.879 7
     -2427.168          43.000  
  21654191.469 7 113793542.207 7      -372.809          44.000    21654196.781 7
  88670322.941 7      -290.551          43.000    21654195.727 7  84975713.059 7
      -278.367          46.000  
  23721924.266 6 124659557.184 6      3672.254          41.000    23721937.313 6
  97137392.836 6      2861.445          39.000    23721937.016 7  93089986.012 7
      2742.219          44.000  
  20720575.258 7 108887356.180 7       191.105          47.000    20720576.961 7
  84847294.637 7       148.934          45.000    20720578.445 8  81311998.535 8
       142.680          51.000  
  21680763.766 7 113933186.770 7      2147.020          45.000    21680765.836 7
  88779114.145 7      1672.988          45.000                                  
                                
  21579057.867 8 113398709.461 8       135.949          48.000    21579060.953 7
  88362638.563 7       105.898          46.000    21579058.203 8  84680851.855 8
       101.473          48.000  
 24 12 03 02 34 40.0000000  0  8G10G21G23G25G26G28G31G32
  20602927.289 8 108269105.988 8     -1052.191          50.000    20602930.664 7
  84365549.441 7      -819.898          47.000    20602927.969 8  80850303.242 8
      -785.723          51.000  
  24397644.055 6 128210470.285 6      -296.004          40.000    24397648.094 5
  99904272.316 5      -230.656          35.000                                  
                                
  23128903.297 7 121543173.250 7     -3251.957          42.000    23128912.789 6
  94708985.152 6     -2533.996          39.000    23128915.344 7  90762802.395 7
     -2428.410          43.000  
  21654547.789 7 113795414.738 7      -376.520          44.000    21654553.109 7
  88671782.047 7      -293.289          43.000    21654552.055 7  84977111.367 7
      -281.105          46.000  
  23718430.383 6 124641196.707 6      3671.813          41.000    23718443.406 6
  97123086.000 6      2861.156          39.000    23718443.109 7  93076275.309 7
      2741.906          44.000  
  20720394.547 7 108886406.504 7       188.531          47.000    20720396.242 7
  84846554.633 7       146.926          45.000    20720397.734 8  81311289.352 8
       140.824          51.000  
  21678722.031 7 113922457.281 7      2144.594          45.000    21678724.078 7
  88770753.512 7      1671.094          45.000                                  
                                
  21578928.727 8 113398030.828 8       135.145          48.000    21578931.828 7
  88362109.754 7       105.324          46.000    21578929.063 8  84680345.070 8
       100.980          48.000  
 24 12 03 02 34 45.0000000  0  8G10G21G23G25G26G28G31G32
  20603930.078 8 108274375.551 8     -1055.133          50.000    20603933.445 7
  84369655.570 7      -822.184          47.000    20603930.742 8  80854238.285 8
      -787.914          51.000  
  24397926.914 6 128211956.559 6      -297.836          40.000    24397930.914 5
  99905430.410 5      -232.141          35.000                                  
                                
  23131998.469 7 121559438.398 7     -3253.496          43.000    23132007.984 6
  94721659.234 6     -2535.199          39.000    23132010.523 7  90774948.371 7
     -2429.590          43.000  
  21654907.797 7 113797306.637 7      -379.801          45.000    21654913.141 7
  88673256.250 7      -295.918          43.000    21654912.078 7  84978524.152 7
      -283.602          46.000  
  23714937.164 6 124622839.766 6      3671.531          41.000    23714950.188 6
  97108781.910 6      2861.039          39.000    23714949.891 7  93062567.246 7
      2741.801          44.000  
  20720216.469 7 108885470.676 7       186.316          47.000    20720218.156 7
  84845825.406 7       145.199          45.000    20720219.656 8  81310590.516 8
       139.129          51.000  
  21676682.867 7 113911741.332 7      2142.395          45.000    21676684.906 7
  88762403.426 7      1669.367          45.000                                  
                                
  21578800.500 8 113397357.047 8       134.867          48.000    21578803.625 7
  88361584.723 7       105.047          46.000    21578800.852 8  84679841.922 8
       100.680          48.000  
 24 12 03 02 34 50.0000000  0  8G10G21G23G25G26G28G31G32
  20604935.609 8 108279659.551 8     -1057.883          50.000    20604938.984 7
  84373772.961 7      -824.316          47.000    20604936.258 8  80858184.113 8
      -790.000          51.000  
  24398211.641 6 128213452.676 6      -299.918          40.000    24398215.641 5
  99906596.203 5      -233.680          35.000                                  
                                
  23135094.992 7 121575710.578 7     -3254.820          43.000    23135104.508 6
  94734338.773 6     -2536.227          39.000    23135107.031 7  90787099.594 7
     -2430.629          43.000  
  21655270.930 7 113799214.965 7      -382.980          45.000    21655276.289 7
  88674743.262 7      -298.383          43.000    21655275.227 7  84979949.207 7
      -286.012          46.000  
  23711444.063 7 124604483.395 7      3671.598          42.000    23711457.109 6
  97094478.316 6      2860.938          39.000    23711456.789 7  93048859.617 7
      2741.664          44.000  
  20720040.461 7 108884545.730 7       184.242          47.000    20720042.141 7
  84845104.652 7       143.590          45.000    20720043.648 8  81309899.797 8
       137.586          51.000  
  21674645.695 7 113901035.871 7      2140.336          46.000    21674647.727 7
  88754061.512 7      1667.813          45.000                                  
                                
  21578672.633 8 113396685.160 8       134.531          49.000    21578675.789 7
  88361061.164 7       104.852          46.000    21578672.992 8  84679340.168 8
       100.504          48.000  
 24 12 03 02 34 55.0000000  0  8G10G21G23G25G26G28G31G32
  20605943.633 8 108284956.625 8     -1060.750          50.000    20605947.000 7
  84377900.535 7      -826.594          47.000    20605944.258 8  80862139.703 8
      -792.172          51.000  
  24398497.977 6 128214957.188 6      -301.785          40.000    24398501.953 5
  99907768.496 5      -235.125          35.000                                  
                                
  23138192.578 7 121591988.398 7     -3256.188          43.000    23138202.094 6
  94747022.703 6     -2537.293          39.000    23138204.609 7  90799255.004 7
     -2431.484          43.000  
  21655636.938 7 113801138.340 7      -386.195          45.000    21655642.313 7
  88676241.996 7      -300.953          43.000    21655641.234 7  84981385.480 7
      -288.313          47.000  
  23707950.820 7 124586126.254 7      3671.473          42.000    23707963.867 6
  97080174.090 6      2860.746          39.000    23707963.531 7  93035151.402 7
      2741.742          44.000  
  20719866.266 7 108883630.266 7       182.090          47.000    20719867.938 7
  84844391.301 7       141.898          45.000    20719869.500 8  81309216.172 8
       135.988          51.000  
  21672610.258 7 113890339.500 7      2138.363          46.000    21672612.273 7
  88745726.684 7      1666.281          45.000                                  
                                
  21578544.867 8 113396013.785 8       134.207          49.000    21578548.055 7
  88360538.020 7       104.570          46.000    21578545.242 8  84678838.813 8
       100.281          49.000  
 24 12 03 02 35  0.0000000  0  8G10G21G23G25G26G28G31G32
  20606955.102 8 108290270.414 8     -1064.266          50.000    20606958.250 7
  84382041.133 7      -829.379          47.000    20606955.539 8  80866107.770 8
      -794.777          51.000  
  24398786.781 6 128216473.793 6      -304.379          40.000    24398790.773 5
  99908950.258 5      -237.164          35.000                                  
                                
  23141292.148 7 121608275.465 7     -3258.238          43.000    23141301.953 6
  94759713.855 6     -2538.891          39.000    23141303.961 7  90811417.344 7
     -2433.020          42.000  
  21656006.438 7 113803080.430 7      -390.188          45.000    21656011.891 7
  88677755.301 7      -303.980          43.000    21656010.805 7  84982835.742 7
      -291.363          47.000  
  23704458.125 7 124567772.004 7      3670.648          42.000    23704471.156 6
  97065872.078 6      2860.254          39.000    23704470.820 7  93021445.340 7
      2741.063          44.000  
  20719694.625 7 108882727.938 7       179.301          47.000    20719696.227 7
  84843688.191 7       139.723          45.000    20719697.805 8  81308542.348 8
       133.887          51.000  
  21670577.398 7 113879655.867 7      2135.734          46.000    21670579.258 7
  88737401.797 7      1664.051          45.000                                  
                                
  21578417.883 8 113395346.594 8       133.051          49.000    21578421.148 7
  88360018.105 7       103.711          46.000    21578418.305 8  84678340.570 8
        99.438          49.000  
 24 12 03 02 35  5.0000000  0  8G10G21G23G25G26G28G31G32
  20607969.445 8 108295600.816 8     -1067.590          50.000    20607972.609 7
  84386194.672 7      -831.863          47.000    20607969.883 8  80870088.238 8
      -797.223          51.000  
  24399077.703 6 128218002.363 6      -306.691          40.000    24399081.672 5
  99910141.301 5      -239.008          35.000                                  
                                
  23144393.258 7 121624571.711 7     -3260.016          43.000    23144403.055 6
  94772412.137 6     -2540.277          39.000    23144405.047 7  90823586.531 7
     -2434.387          42.000  
  21656379.547 7 113805041.098 7      -393.781          45.000    21656384.977 7
  88679283.102 7      -306.820          43.000    21656383.930 7  84984299.875 7
      -294.047          47.000  
  23700965.914 7 124549420.512 7      3670.180          42.000    23700978.984 6
  97051572.262 6      2859.797          39.000    23700978.648 7  93007741.359 7
      2740.660          44.000  
  20719525.398 7 108881838.641 7       176.750          47.000    20719526.992 7
  84842995.223 7       137.711          45.000    20719528.586 8  81307878.254 8
       131.973          51.000  
  21668546.797 7 113868984.910 7      2133.141          46.000    21668548.617 7
  88729086.762 7      1662.180          45.000                                  
                                
  21578291.688 8 113394683.441 8       132.430          49.000    21578295.000 7
  88359501.355 7       103.262          46.000    21578292.125 8  84677845.359 8
        98.914          48.000  
 24 12 03 02 35 10.0000000  0  8G10G21G23G25G26G28G31G32
  20608986.141 8 108300943.555 8     -1069.379          50.000    20608989.313 7
  84390357.816 7      -833.281          47.000    20608986.578 8  80874077.922 8
      -798.555          51.000  
  24399370.094 6 128219538.629 6      -307.523          40.000    24399374.063 5
  99911338.387 5      -239.668          35.000                                  
                                
  23147495.281 7 121640872.832 7     -3260.250          43.000    23147505.094 6
  94785114.246 6     -2540.461          39.000    23147507.070 7  90835759.352 7
     -2434.668          42.000  
  21656755.383 7 113807016.117 7      -396.078          45.000    21656760.805 7
  88680822.070 7      -308.691          43.000    21656759.781 7  84985774.723 7
      -295.742          46.000  
  23697473.492 7 124531067.563 7      3671.125          42.000    23697486.555 6
  97037271.293 6      2860.727          39.000    23697485.977 7  92994036.270 7
      2741.438          44.000  
  20719357.852 7 108880958.117 7       175.668          47.000    20719359.430 7
  84842309.090 7       136.875          45.000    20719361.031 8  81307220.719 8
       131.172          51.000  
  21666517.781 7 113858322.367 7      2132.039          46.000    21666519.586 7
  88720778.277 7      1661.332          45.000                                  
                                
  21578165.453 8 113394020.105 8       133.141          49.000    21578168.813 7
  88358984.465 7       103.730          46.000    21578165.906 8  84677350.004 8
        99.398          48.000  
 24 12 03 02 35 15.0000000  0  8G10G21G23G25G26G28G31G32
  20610005.039 8 108306297.910 8     -1072.480          50.000    20610008.234 7
  84394530.020 7      -835.633          47.000    20610005.484 8  80878076.281 8
      -800.867          51.000  
  24399663.813 6 128221081.887 6      -309.805          40.000    24399667.734 5
  99912540.887 5      -241.367          35.000                                  
                                
  23150598.094 7 121657178.102 7     -3261.828          43.000    23150607.922 6
  94797819.586 6     -2541.691          39.000    23150609.883 7  90847935.281 7
     -2435.742          42.000  
  21657133.820 7 113809004.738 7      -399.535          45.000    21657139.219 7
  88682371.641 7      -311.297          43.000    21657138.219 7  84987259.727 7
      -298.305          46.000  
  23693980.648 7 124512712.434 7      3670.863          42.000    23693993.648 6
  97022968.633 6      2860.383          39.000    23693993.102 7  92980329.555 7
      2741.156          44.000  
  20719191.820 7 108880085.605 7       173.277          47.000    20719193.391 7
  84841629.215 7       135.023          45.000    20719195.008 8  81306569.160 8
       129.395          51.000  
  21664490.227 7 113847667.465 7      2129.879          46.000    21664492.023 7
  88712475.770 7      1659.563          45.000                                  
                                
  21578039.055 8 113393355.852 8       132.469          49.000    21578042.438 7
  88358466.855 7       103.258          46.000    21578039.516 8  84676853.953 8
        98.984          48.000  
 24 12 03 02 35 20.0000000  0  8G10G21G23G25G26G28G31G32
  20611026.563 8 108311666.027 8     -1075.352          50.000    20611029.766 7
  84398712.961 7      -837.914          47.000    20611027.008 8  80882084.926 8
      -803.008          51.000  
  24399959.250 6 128222634.188 6      -311.684          40.000    24399963.148 5
  99913750.438 5      -242.875          35.000                                  
                                
  23153702.109 7 121673489.648 7     -3263.230          43.000    23153711.922 6
  94810529.785 6     -2542.781          39.000    23153713.891 7  90860115.902 7
     -2436.914          42.000  
  21657515.258 7 113811009.094 7      -402.793          45.000    21657520.633 7
  88683933.484 7      -313.875          43.000    21657519.664 7  84988756.488 7
      -300.746          46.000  
  23690487.797 7 124494357.281 7      3670.711          42.000    23690500.750 6
  97008665.965 6      2860.188          39.000    23690500.219 7  92966622.820 7
      2741.098          44.000  
  20719027.719 7 108879223.254 7       171.176          47.000    20719029.289 7
  84840957.246 7       133.395          45.000    20719030.914 8  81305925.203 8
       127.793          51.000  
  21662464.539 7 113837022.379 7      2127.703          46.000    21662466.320 7
  88704180.895 7      1657.996          45.000                                  
                                
  21577912.891 8 113392692.797 8       132.211          49.000    21577916.273 7
  88357950.195 7       103.039          46.000    21577913.352 8  84676358.816 8
        98.785          48.000  
 24 12 03 02 35 25.0000000  0  8G10G21G23G25G26G28G31G32
  20612051.039 8 108317049.719 8     -1078.172          50.000    20612054.266 7
  84402908.027 7      -840.230          47.000    20612051.500 8  80886105.188 8
      -805.141          51.000  
  24400256.750 6 128224197.402 6      -313.645          40.000    24400260.633 5
  99914968.527 5      -244.418          35.000                                  
                                
  23156807.656 7 121689809.297 7     -3264.676          43.000    23156817.477 6
  94823246.328 6     -2543.906          39.000    23156819.844 7  90872302.527 7
     -2437.715          42.000  
  21657900.031 7 113813031.004 7      -406.098          45.000    21657905.391 7
  88685508.988 7      -316.477          43.000    21657904.438 7  84990266.348 7
      -303.285          47.000  
  23686995.289 7 124476003.938 7      3670.527          42.000    23687008.164 6
  96994364.668 6      2860.164          39.000    23687007.680 7  92952917.438 7
      2740.973          44.000  
  20718865.898 7 108878372.883 7       168.988          47.000    20718867.469 7
  84840294.621 7       131.645          45.000    20718869.086 8  81305290.172 8
       126.184          51.000  
  21660441.063 7 113826388.926 7      2125.707          46.000    21660442.836 7
  88695895.098 7      1656.289          45.000                                  
                                
  21577787.305 8 113392032.801 8       131.832          49.000    21577790.680 7
  88357435.898 7       102.664          46.000    21577787.773 8  84675865.945 8
        98.477          48.000  
 24 12 03 02 35 30.0000000  0  8G10G21G23G25G26G28G31G32
  20613078.531 8 108322449.191 8     -1081.402          50.000    20613081.750 7
  84407115.379 7      -842.613          47.000    20613078.984 8  80890137.234 8
      -807.547          51.000  
  24400556.367 6 128225771.750 6      -316.031          40.000    24400560.203 5
  99916195.238 5      -246.309          35.000                                  
                                
  23159914.781 7 121706137.195 7     -3266.402          43.000    23159924.594 6
  94835969.297 6     -2545.250          39.000    23159926.977 7  90884495.371 7
     -2439.148          42.000  
  21658288.180 7 113815070.688 7      -409.727          45.000    21658293.539 7
  88687098.348 7      -319.301          43.000    21658292.586 7  84991789.484 7
      -305.938          46.000  
  23683503.164 7 124457652.602 7      3670.078          42.000    23683515.992 6
  96980064.973 6      2859.723          39.000    23683515.539 7  92939213.566 7
      2740.578          44.000  
  20718706.383 7 108877534.680 7       166.355          47.000    20718707.961 7
  84839641.484 7       129.605          45.000    20718709.586 8  81304664.242 8
       124.242          51.000  
  21658419.844 7 113815767.352 7      2123.070          46.000    21658421.617 7
  88687618.543 7      1654.352          45.000                                  
                                
  21577662.336 8 113391376.051 8       131.055          49.000    21577665.703 7
  88356924.145 7       102.063          46.000    21577662.813 8  84675375.512 8
        97.848          48.000  
 24 12 03 02 35 35.0000000  0  8G10G21G23G25G26G28G31G32
  20614109.125 8 108327865.008 8     -1084.762          50.000    20614112.352 7
  84411335.469 7      -845.215          47.000    20614109.586 8  80894181.488 8
      -810.047          51.000  
  24400858.203 6 128227357.734 6      -318.203          40.000    24400862.016 5
  99917431.051 5      -247.945          35.000                                  
                                
  23163023.594 7 121722473.969 7     -3268.238          42.000    23163033.406 6
  94848699.156 6     -2546.680          39.000    23163035.789 7  90896694.813 7
     -2440.563          42.000  
  21658679.820 7 113817128.699 7      -413.367          45.000    21658685.172 7
  88688701.988 7      -322.113          43.000    21658684.234 7  84993326.313 7
      -308.676          46.000  
  23680011.531 7 124439303.871 7      3669.449          42.000    23680024.328 6
  96965767.297 6      2859.332          39.000    23680023.898 7  92925511.633 7
      2740.207          44.000  
  20718549.281 7 108876709.203 7       163.887          47.000    20718550.875 7
  84838998.246 7       127.730          45.000    20718552.500 8  81304047.813 8
       122.332          51.000  
  21656400.977 7 113805158.148 7      2120.672          45.000    21656402.758 7
  88679351.637 7      1652.445          45.000                                  
                                
  21577538.102 8 113390723.129 8       130.184          49.000    21577541.461 7
  88356415.355 7       101.430          46.000    21577538.578 8  84674887.930 8
        97.227          48.000  
 24 12 03 02 35 40.0000000  0  8G10G21G23G25G26G28G31G32
  20615142.398 8 108333294.902 8     -1087.516          50.000    20615145.648 7
  84415566.547 7      -847.406          47.000    20615142.867 8  80898236.254 8
      -812.098          51.000  
  24401161.820 6 128228953.137 6      -320.152          39.000    24401165.617 5
  99918674.195 5      -249.477          35.000                                  
                                
  23166133.648 7 121738817.281 7     -3269.375          42.000    23166143.453 6
  94861434.117 6     -2547.570          39.000    23166145.836 6  90908899.145 6
     -2441.379          41.000  
  21659074.508 7 113819202.801 7      -416.555          45.000    21659079.867 7
  88690318.168 7      -324.555          43.000    21659078.938 7  84994875.148 7
      -311.047          46.000  
  23676519.961 7 124420955.500 7      3669.637          42.000    23676532.742 6
  96951469.902 6      2859.313          39.000    23676532.320 7  92911809.973 7
      2740.207          44.000  
  20718394.180 7 108875894.207 7       161.824          46.000    20718395.781 7
  84838363.176 7       126.094          45.000    20718397.406 8  81303439.199 8
       120.863          51.000  
  21654384.055 7 113794559.125 7      2118.711          45.000    21654385.836 7
  88671092.664 7      1650.918          45.000                                  
                                
  21577414.164 8 113390071.758 8       130.023          49.000    21577417.500 7
  88355907.793 7       101.309          46.000    21577414.633 8  84674401.508 8
        97.086          48.000  
 24 12 03 02 35 45.0000000  0  8G10G21G23G25G26G28G31G32
  20616178.297 8 108338738.586 8     -1090.398          50.000    20616181.555 7
  84419808.363 7      -849.648          47.000    20616178.773 8  80902301.332 8
      -814.250          51.000  
  24401467.156 6 128230557.605 6      -322.023          39.000    24401470.953 5
  99919924.410 5      -250.902          35.000                                  
                                
  23169244.914 7 121755166.887 7     -3270.746          42.000    23169254.703 6
  94874173.984 6     -2548.637          39.000    23169257.086 6  90921108.164 6
     -2442.391          41.000  
  21659472.195 7 113821292.652 7      -419.797          44.000    21659477.570 7
  88691946.625 7      -327.035          43.000    21659476.633 7  84996435.758 7
      -313.500          46.000  
  23673028.406 7 124402607.211 7      3669.488          42.000    23673041.156 6
  96937172.555 6      2859.313          39.000    23673040.750 7  92898108.359 7
      2740.176          44.000  
  20718241.008 7 108875089.363 7       159.711          46.000    20718242.617 7
  84837736.020 7       124.484          45.000    20718244.281 8  81302838.188 8
       119.277          51.000  
  21652369.016 7 113783969.992 7      2116.621          45.000    21652370.797 7
  88662841.402 7      1649.242          45.000                                  
                                
  21577290.469 8 113389421.668 8       129.699          49.000    21577293.781 7
  88355401.230 7       101.055          46.000    21577290.938 8  84673916.051 8
        96.836          48.000  
 24 12 03 02 35 50.0000000  0  8G10G21G23G25G26G28G31G32
  20617217.117 8 108344197.523 8     -1093.137          50.000    20617220.516 7
  84424062.059 7      -851.832          47.000    20617217.688 8  80906377.789 8
      -816.355          51.000  
  24401774.852 6 128232172.664 6      -323.875          40.000    24401778.531 5
  99921182.871 5      -252.402          35.000                                  
                                
  23172357.922 7 121771524.199 7     -3272.082          42.000    23172367.898 6
  94886919.867 6     -2549.676          38.000    23172369.813 6  90933322.953 6
     -2443.355          41.000  
  21659873.250 7 113823399.789 7      -423.039          44.000    21659878.602 7
  88693588.547 7      -329.664          43.000    21659877.805 7  84998009.258 7
      -315.930          46.000  
  23669537.156 7 124384260.492 7      3669.313          42.000    23669549.859 6
  96922876.426 6      2859.203          39.000    23669549.477 7  92884407.902 7
      2740.176          44.000  
  20718090.008 7 108874296.164 7       157.613          47.000    20718091.625 7
  84837117.930 7       122.820          45.000    20718093.328 8  81302245.852 8
       117.707          51.000  
  21650356.180 7 113773392.207 7      2114.504          45.000    21650357.859 7
  88654598.961 7      1647.711          45.000                                  
                                
  21577167.367 8 113388774.324 8       129.301          49.000    21577170.727 7
  88354896.785 7       100.793          46.000    21577167.906 8  84673432.629 8
        96.566          48.000  
 24 12 03 02 35 55.0000000  0  8G10G21G23G25G26G28G31G32
  20618259.023 8 108349672.730 8     -1096.691          50.000    20618262.406 7
  84428328.430 7      -854.570          47.000    20618259.586 8  80910466.391 8
      -818.938          51.000  
  24402084.375 6 128233799.305 6      -326.500          39.000    24402088.117 5
  99922450.371 5      -254.383          35.000                                  
                                
  23175472.305 7 121787890.250 7     -3274.113          42.000    23175482.273 6
  94899672.555 6     -2551.266          39.000    23175484.195 6  90945544.266 6
     -2444.938          41.000  
  21660277.672 7 113825525.148 7      -426.828          44.000    21660283.102 7
  88695244.676 7      -332.645          43.000    21660282.250 7  84999596.383 7
      -318.785          46.000  
  23666046.539 7 124365916.324 7      3668.547          42.000    23666059.086 6
  96908582.320 6      2858.512          40.000    23666058.703 7  92870709.391 7
      2739.453          44.000  
  20717941.445 7 108873515.582 7       154.855          46.000    20717943.078 7
  84836509.695 7       120.648          45.000    20717944.773 8  81301662.945 8
       115.605          51.000  
  21648345.641 7 113762826.754 7      2111.906          45.000    21648347.344 7
  88646366.160 7      1645.563          45.000                                  
                                
  21577044.914 8 113388130.715 8       128.355          49.000    21577048.227 7
  88354395.273 7       100.012          46.000    21577045.438 8  84672952.004 8
        95.863          48.000  
 24 12 03 02 36  0.0000000  0  8G10G21G23G25G26G28G31G32
  20619304.164 8 108355164.957 8     -1100.004          50.000    20619307.531 7
  84432608.074 7      -857.152          47.000    20619304.734 8  80914567.711 8
      -821.465          51.000  
  24402396.242 6 128235438.273 6      -328.988          39.000    24402400.031 5
  99923727.426 5      -256.320          35.000                                  
                                
  23178588.477 7 121804265.750 7     -3275.875          42.000    23178598.445 6
  94912432.605 6     -2552.633          38.000    23178600.375 6  90957772.633 6
     -2446.191          41.000  
  21660685.711 7 113827669.535 7      -430.660          44.000    21660691.195 7
  88696915.613 7      -335.484          43.000    21660690.313 7  85001197.703 7
      -321.586          46.000  
  23662556.406 7 124347575.512 7      3668.039          42.000    23662568.969 6
  96894290.813 6      2858.188          40.000    23662568.438 7  92857013.367 7
      2739.066          44.000  
  20717795.430 7 108872748.383 7       152.305          47.000    20717797.078 7
  84835911.867 7       118.656          45.000    20717798.766 8  81301090.039 8
       113.730          51.000  
  21646337.594 7 113752274.414 7      2109.359          45.000    21646339.297 7
  88638143.555 7      1643.660          45.000                                  
                                
  21576923.320 8 113387491.625 8       127.520          49.000    21576926.570 7
  88353897.270 7        99.457          46.000    21576923.828 8  84672474.758 8
        95.258          48.000  
 24 12 03 02 36  5.0000000  0  8G10G21G23G25G26G28G31G32
  20620351.875 8 108360670.707 8     -1102.559          50.000    20620355.227 7
  84436898.246 7      -859.148          47.000    20620352.445 8  80918679.113 8
      -823.293          51.000  
  24402709.766 6 128237086.020 6      -330.441          40.000    24402713.617 5
  99925011.340 5      -257.426          35.000                                  
                                
  23181705.781 7 121820647.215 7     -3276.824          42.000    23181715.734 6
  94925197.277 6     -2553.375          38.000    23181717.695 6  90970005.449 6
     -2446.934          41.000  
  21661096.695 7 113829829.414 7      -433.449          45.000    21661102.242 7
  88698598.645 7      -337.805          43.000    21661101.320 7  85002810.594 7
      -323.715          46.000  
  23659066.242 7 124329234.547 7      3668.207          42.000    23659078.609 6
  96879999.191 6      2858.320          40.000    23659078.258 7  92843317.230 7
      2739.180          44.000  
  20717651.297 7 108871991.070 7       150.508          47.000    20717652.969 7
  84835321.738 7       117.281          45.000    20717654.633 8  81300524.504 8
       112.391          51.000  
  21644331.375 7 113741731.680 7      2107.664          46.000    21644333.070 7
  88629928.441 7      1642.305          45.000                                  
                                
  21576801.922 8 113386853.543 8       127.551          49.000    21576805.102 7
  88353400.063 7        99.395          46.000    21576802.406 8  84671998.258 8
        95.234          48.000  
 24 12 03 02 36 10.0000000  0  8G10G21G23G25G26G28G31G32
  20621401.992 8 108366189.066 8     -1105.273          50.000    20621405.328 7
  84441198.258 7      -861.258          47.000    20621402.570 8  80922799.953 8
      -825.348          51.000  
  24403024.820 6 128238741.715 6      -332.168          40.000    24403028.742 5
  99926301.527 5      -258.887          35.000                                  
                                
  23184824.055 7 121837033.746 7     -3278.109          42.000    23184834.000 6
  94937965.945 6     -2554.375          38.000    23184835.984 6  90982242.043 6
     -2447.828          41.000  
  21661510.469 7 113832003.922 7      -436.633          45.000    21661516.063 7
  88700293.063 7      -340.184          43.000    21661515.109 7  85004434.422 7
      -326.043          46.000  
  23655575.883 7 124310892.570 7      3668.203          42.000    23655588.258 6
  96865706.754 6      2858.328          39.000    23655587.891 7  92829620.340 7
      2739.242          44.000  
  20717508.883 7 108871242.730 7       148.461          47.000    20717510.570 7
  84834738.637 7       115.668          45.000    20717512.219 8  81299965.680 8
       110.895          51.000  
  21642326.820 7 113731197.684 7      2105.559          45.000    21642328.508 7
  88621720.129 7      1640.785          45.000                                  
                                
  21576680.547 8 113386215.590 8       127.297          49.000    21576683.688 7
  88352902.957 7        99.184          46.000    21576681.016 8  84671521.863 8
        95.023          48.000  
 24 12 03 02 36 15.0000000  0  8G10G21G23G25G26G28G31G32
  20622455.086 8 108371723.074 8     -1108.324          50.000    20622458.391 7
  84445510.449 7      -863.680          47.000    20622455.664 8  80926932.473 8
      -827.680          51.000  
  24403341.961 6 128240408.359 6      -334.309          39.000    24403345.914 5
  99927600.137 5      -260.500          35.000                                  
                                
  23187943.867 7 121853428.332 7     -3279.637          42.000    23187953.805 6
  94950740.867 6     -2555.566          38.000    23187956.320 7  90994484.676 7
     -2449.113          42.000  
  21661927.617 7 113834196.074 7      -440.066          44.000    21661933.227 7
  88702001.234 7      -342.984          43.000    21661932.250 7  85006071.410 7
      -328.672          46.000  
  23652085.906 7 124292552.602 7      3667.906          42.000    23652098.297 6
  96851415.906 6      2858.086          39.000    23652097.906 7  92815924.949 7
      2739.027          45.000  
  20717368.758 7 108870506.406 7       146.008          47.000    20717370.445 7
  84834164.855 7       113.797          45.000    20717372.086 8  81299415.816 8
       109.090          51.000  
  21640324.500 7 113720675.441 7      2103.336          45.000    21640326.203 7
  88613520.988 7      1638.957          45.000                                  
                                
  21576559.766 8 113385580.797 8       126.742          49.000    21576562.875 7
  88352408.297 7        98.781          46.000    21576560.219 8  84671047.816 8
        94.617          48.000  
 24 12 03 02 36 20.0000000  0  8G10G21G23G25G26G28G31G32
  20623511.250 8 108377273.242 8     -1111.758          50.000    20623514.531 7
  84449835.230 7      -866.242          47.000    20623511.836 8  80931077.051 8
      -830.188          51.000  
  24403661.266 6 128242086.414 6      -336.902          40.000    24403665.258 5
  99928907.691 5      -262.496          35.000                                  
                                
  23191065.313 7 121869831.492 7     -3281.508          43.000    23191075.234 6
  94963522.469 6     -2557.023          38.000    23191077.773 7  91006733.695 7
     -2450.520          42.000  
  21662348.211 7 113836406.367 7      -443.914          45.000    21662353.844 7
  88703723.535 7      -345.918          43.000    21662352.844 7  85007721.953 7
      -331.531          46.000  
  23648596.406 7 124274215.160 7      3667.254          42.000    23648608.859 6
  96837127.031 6      2857.500          40.000    23648608.414 7  92802231.453 7
      2738.465          45.000  
  20717231.000 7 108869782.543 7       143.484          47.000    20717232.711 7
  84833600.816 7       111.797          45.000    20717234.336 8  81298875.277 8
       107.121          51.000  
  21638324.508 7 113710165.449 7      2100.766          45.000    21638326.227 7
  88605331.391 7      1636.926          45.000                                  
                                
  21576439.680 8 113384949.668 8       125.742          49.000    21576442.781 7
  88351916.504 7        97.961          46.000    21576440.117 8  84670576.504 8
        93.902          48.000  
 24 12 03 02 36 25.0000000  0  8G10G21G23G25G26G28G31G32
  20624570.547 8 108382839.855 8     -1114.664          50.000    20624573.828 7
  84454172.840 7      -868.520          47.000    20624571.141 8  80935233.918 8
      -832.359          51.000  
  24403982.805 6 128243776.172 6      -338.891          40.000    24403986.859 5
  99930224.398 5      -264.070          35.000                                  
                                
  23194188.445 7 121886243.527 7     -3283.051          43.000    23194198.344 6
  94976310.980 6     -2558.227          38.000    23194200.914 7  91018989.328 7
     -2451.559          42.000  
  21662772.336 7 113838635.125 7      -447.414          45.000    21662777.977 7
  88705460.215 7      -348.516          43.000    21662776.953 7  85009386.273 7
      -334.074          47.000  
  23645107.445 7 124255880.598 7      3666.895          42.000    23645119.977 6
  96822840.395 6      2857.254          40.000    23645119.453 7  92788540.086 7
      2738.270          45.000  
  20717095.695 7 108869071.508 7       141.176          47.000    20717097.406 7
  84833046.766 7       109.996          45.000    20717099.023 8  81298344.305 8
       105.430          51.000  
  21636326.914 7 113699668.047 7      2098.508          46.000    21636328.633 7
  88597151.598 7      1635.199          45.000                                  
                                
  21576320.336 8 113384322.484 8       125.188          49.000    21576323.430 7
  88351427.773 7        97.656          46.000    21576320.773 8  84670108.141 8
        93.570          48.000  
 24 12 03 02 36 30.0000000  0  8G10G21G23G25G26G28G31G32
  20625632.539 8 108388420.641 8     -1117.914          50.000    20625635.813 7
  84458521.477 7      -871.090          47.000    20625633.141 8  80939401.355 8
      -834.758          51.000  
  24404306.133 6 128245475.348 6      -341.137          40.000    24404310.227 5
  99931548.387 5      -265.820          35.000                                  
                                
  23197312.820 7 121902662.102 7     -3284.750          43.000    23197322.703 6
  94989104.578 6     -2559.551          38.000    23197325.297 7  91031249.867 7
     -2452.875          42.000  
  21663199.523 7 113840880.008 7      -450.945          45.000    21663205.164 7
  88707209.480 7      -351.359          43.000    21663204.125 7  85011062.641 7
      -336.695          47.000  
  23641618.594 7 124237546.586 7      3666.426          42.000    23641631.133 6
  96808554.156 6      2856.906          39.000    23641630.594 7  92774849.133 7
      2737.922          45.000  
  20716962.383 7 108868370.941 7       138.785          47.000    20716964.102 7
  84832500.863 7       108.137          45.000    20716965.703 8  81297821.148 8
       103.629          51.000  
  21634331.266 7 113689180.918 7      2096.086          46.000    21634333.000 7
  88588979.816 7      1633.301          45.000                                  
                                
  21576201.313 8 113383696.961 8       124.656          49.000    21576204.406 7
  88350940.352 7        97.129          46.000    21576201.742 8  84669641.023 8
        93.063          48.000  
 24 12 03 02 36 35.0000000  0  8G10G21G23G25G26G28G31G32
  20626697.328 8 108394016.105 8     -1120.426          50.000    20626700.602 7
  84462881.566 7      -873.027          47.000    20626697.930 8  80943579.773 8
      -836.664          51.000  
  24404631.359 6 128247184.492 6      -342.770          40.000    24404635.500 5
  99932880.176 5      -267.066          35.000                                  
                                
  23200438.555 7 121919087.762 7     -3285.766          43.000    23200448.414 6
  95001903.715 6     -2560.344          38.000    23200451.031 7  91043515.680 7
     -2453.570          42.000  
  21663629.891 7 113843141.590 7      -453.922          45.000    21663635.523 7
  88708971.758 7      -353.695          43.000    21663634.484 7  85012751.492 7
      -338.934          47.000  
  23638129.945 7 124219213.676 7      3666.605          42.000    23638142.484 6
  96794268.813 6      2857.164          39.000    23638141.953 7  92761159.023 7
      2738.016          45.000  
  20716831.172 7 108867681.410 7       136.969          47.000    20716832.891 7
  84831963.582 7       106.688          45.000    20716834.398 8  81297306.242 8
       102.266          51.000  
  21632337.672 7 113678704.570 7      2094.355          46.000    21632339.430 7
  88580816.441 7      1631.934          45.000                                  
                                
  21576082.703 8 113383073.652 8       124.586          49.000    21576085.805 7
  88350454.660 7        97.070          46.000    21576083.141 8  84669175.566 8
        92.984          48.000  
 24 12 03 02 36 40.0000000  0  8G10G21G23G25G26G28G31G32
  20627765.102 8 108399627.020 8     -1123.723          50.000    20627768.289 7
  84467253.684 7      -875.586          47.000    20627765.813 8  80947769.715 8
      -839.160          51.000  
  24404958.461 6 128248904.344 6      -344.914          39.000    24404963.203 5
  99934220.285 5      -268.809          35.000                                  
                                
  23203566.047 7 121935521.234 7     -3287.516          43.000    23203575.938 6
  95014708.938 6     -2561.703          38.000    23203578.258 7  91055787.324 7
     -2454.785          42.000  
  21664063.477 7 113845420.605 7      -457.516          45.000    21664069.375 7
  88710747.609 7      -356.551          43.000    21664068.109 7  85014453.344 7
      -341.652          47.000  
  23634641.656 6 124200882.660 6      3665.996          41.000    23634654.211 6
  96779984.918 6      2856.734          40.000    23634653.664 7  92747470.313 7
      2737.598          45.000  
  20716702.102 7 108867003.648 7       134.359          47.000    20716703.930 7
  84831435.434 7       104.703          45.000    20716705.430 8  81296800.113 8
       100.348          51.000  
  21630346.234 7 113668239.805 7      2091.852          45.000    21630348.078 7
  88572662.082 7      1629.914          45.000                                  
                                
  21575964.820 8 113382453.316 8       123.723          49.000    21575967.641 7
  88349971.262 7        96.484          46.000    21575965.156 8  84668712.313 8
        92.422          48.000  
 24 12 03 02 36 45.0000000  0  8G10G21G23G25G26G28G31G32
  20628835.969 8 108405254.441 8     -1127.414          50.000    20628839.164 7
  84471638.672 7      -878.539          47.000    20628836.680 8  80951971.988 8
      -841.910          51.000  
  24405287.961 6 128250635.965 6      -347.793          39.000    24405292.688 5
  99935569.582 5      -271.055          35.000                                  
                                
  23206694.961 7 121951963.582 7     -3289.605          43.000    23206704.813 6
  95027521.102 6     -2563.332          38.000    23206707.172 7  91068065.621 7
     -2456.543          42.000  
  21664500.695 7 113847718.129 7      -461.551          45.000    21664506.508 7
  88712537.879 7      -359.641          43.000    21664505.305 7  85016169.023 7
      -344.656          47.000  
  23631153.891 6 124182554.586 6      3665.012          41.000    23631166.500 6
  96765703.352 6      2855.867          39.000    23631165.945 7  92733783.809 7
      2736.855          45.000  
  20716575.586 7 108866338.715 7       131.355          47.000    20716577.406 7
  84830917.305 7       102.348          45.000    20716578.914 8  81296303.570 8
        98.129          51.000  
  21628357.242 7 113657787.668 7      2088.902          45.000    21628359.086 7
  88564517.570 7      1627.602          45.000                                  
                                
  21575847.547 8 113381837.000 8       122.617          49.000    21575850.406 7
  88349491.008 7        95.590          46.000    21575847.875 8  84668252.066 8
        91.520          48.000  
 24 12 03 02 36 50.0000000  0  8G10G21G23G25G26G28G31G32
  20629910.039 8 108410898.691 8     -1129.836          50.000    20629913.250 7
  84476036.766 7      -880.387          47.000    20629910.750 8  80956186.820 8
      -843.664          51.000  
  24405619.766 6 128252379.699 6      -349.223          39.000    24405624.477 5
  99936928.301 5      -272.133          35.000                                  
                                
  23209825.633 7 121968415.133 7     -3290.590          43.000    23209835.438 6
  95040340.410 6     -2564.098          38.000    23209837.844 7  91080350.777 7
     -2457.164          42.000  
  21664941.500 7 113850034.496 7      -464.508          45.000    21664947.250 7
  88714342.836 7      -361.984          43.000    21664946.094 7  85017898.781 7
      -346.891          46.000  
  23627666.766 6 124164229.813 6      3665.320          41.000    23627679.383 6
  96751424.332 6      2856.063          39.000    23627678.695 7  92720099.746 7
      2737.094          44.000  
  20716451.563 7 108865686.918 7       129.707          47.000    20716453.383 7
  84830409.402 7       101.102          45.000    20716454.898 8  81295816.840 8
        96.852          51.000  
  21626370.703 7 113647348.469 7      2087.191          45.000    21626372.547 7
  88556383.129 7      1626.316          45.000                                  
                                
  21575731.102 8 113381225.059 8       122.594          49.000    21575733.984 7
  88349014.164 7        95.535          46.000    21575731.430 8  84667795.078 8
        91.586          48.000  
 24 12 03 02 36 55.0000000  0  8G10G21G23G25G26G28G31G32
  20630986.625 8 108416556.141 8     -1132.746          50.000    20630989.852 7
  84480445.152 7      -882.629          47.000    20630987.336 8  80960411.516 8
      -845.816          51.000  
  24405953.195 6 128254131.898 6      -351.078          39.000    24405957.898 5
  99938293.617 5      -273.594          34.000                                  
                                
  23212957.352 7 121984872.254 7     -3291.801          42.000    23212967.117 6
  95053164.031 6     -2565.043          38.000    23212969.563 7  91092640.082 7
     -2458.121          42.000  
  21665385.195 7 113852366.043 7      -467.598          45.000    21665390.914 7
  88716159.617 7      -364.336          43.000    21665389.773 7  85019639.867 7
      -349.219          47.000  
  23624179.578 6 124145904.727 6      3665.242          41.000    23624192.211 6
  96737145.066 6      2855.980          40.000    23624191.523 7  92706415.465 7
      2736.977          44.000  
  20716329.344 7 108865044.641 7       127.602          47.000    20716331.164 7
  84829908.918 7        99.473          45.000    20716332.695 8  81295337.211 8
        95.332          51.000  
  21624385.953 7 113636918.613 7      2085.309          45.000    21624387.805 7
  88548255.973 7      1624.879          45.000                                  
                                
  21575614.789 8 113380613.836 8       122.328          49.000    21575617.695 7
  88348537.883 7        95.324          46.000    21575615.117 8  84667338.645 8
        91.352          48.000  
 24 12 03 02 37  0.0000000  0  8G10G21G23G25G26G28G31G32
  20632066.055 8 108422228.496 8     -1136.512          50.000    20632069.289 7
  84484865.152 7      -885.551          47.000    20632066.758 8  80964647.352 8
      -848.668          51.000  
  24406288.547 6 128255894.227 6      -354.043          40.000    24406293.227 5
  99939666.832 5      -275.906          35.000                                  
                                
  23216090.453 7 122001336.617 7     -3294.102          43.000    23216100.180 6
  95065993.336 6     -2566.836          38.000    23216102.672 7  91104934.820 7
     -2459.969          42.000  
  21665832.109 7 113854714.500 7      -471.879          45.000    21665837.805 7
  88717989.598 7      -367.738          43.000    21665836.680 7  85021393.586 7
      -352.379          47.000  
  23620692.648 6 124127581.051 6      3664.094          41.000    23620705.258 6
  96722866.938 6      2855.059          40.000    23620704.633 7  92692732.242 7
      2736.168          44.000  
  20716209.266 7 108864413.586 7       124.602          47.000    20716211.086 7
  84829417.191 7        97.078          45.000    20716212.625 8  81294865.973 8
        93.035          51.000  
  21622403.305 7 113626499.809 7      2082.180          45.000    21622405.148 7
  88540137.430 7      1622.414          45.000                                  
                                
  21575498.945 8 113380005.070 8       121.016          49.000    21575501.875 7
  88348063.523 7        94.305          46.000    21575499.273 8  84666884.043 8
        90.379          48.000  
 24 12 03 02 37  5.0000000  0  8G10G21G23G25G26G28G31G32
  20633148.398 8 108427916.191 8     -1139.195          50.000    20633151.641 7
  84489297.094 7      -887.629          47.000    20633149.094 8  80968894.625 8
      -850.668          51.000  
  24406625.914 6 128257667.129 6      -355.770          40.000    24406630.555 5
  99941048.273 5      -277.207          35.000                                  
                                
  23219225.016 7 122017808.656 7     -3295.203          43.000    23219234.719 6
  95078828.625 6     -2567.691          38.000    23219237.836 7  91117235.262 7
     -2460.703          42.000  
  21666282.328 7 113857080.297 7      -474.969          45.000    21666288.000 7
  88719833.063 7      -370.098          43.000    21666286.891 7  85023160.246 7
      -354.691          47.000  
  23617206.078 6 124109259.211 6      3663.977          41.000    23617218.672 6
  96708590.199 6      2855.035          40.000    23617218.094 7  92679050.387 7
      2736.090          44.000  
  20716091.406 7 108863794.172 7       122.617          47.000    20716093.219 7
  84828934.527 7        95.535          45.000    20716094.773 8  81294403.418 8
        91.555          51.000  
  21620422.836 7 113616092.441 7      2080.285          45.000    21620424.680 7
  88532027.797 7      1620.918          45.000                                  
                                
  21575383.656 8 113379399.199 8       120.723          49.000    21575386.609 7
  88347591.398 7        94.082          46.000    21575383.977 8  84666431.590 8
        90.172          48.000  
 24 12 03 02 37 10.0000000  0  8G10G21G23G25G26G28G31G32
  20634233.648 8 108433619.117 8     -1142.324          50.000    20634236.898 7
  84493740.918 7      -890.160          47.000    20634234.328 8  80973153.281 8
      -853.035          51.000  
  24406965.273 6 128259450.473 6      -357.891          40.000    24406969.883 5
  99942437.887 5      -278.867          35.000                                  
                                
  23222361.016 7 122034288.258 7     -3296.949          43.000    23222370.688 6
  95091669.773 6     -2569.055          38.000    23222373.844 7  91129541.359 7
     -2461.883          42.000  
  21666735.828 7 113859463.336 7      -478.527          45.000    21666741.461 7
  88721689.984 7      -372.934          43.000    21666740.375 7  85024939.785 7
      -357.320          47.000  
  23613719.836 6 124090939.129 6      3663.594          41.000    23613732.422 6
  96694314.836 6      2854.750          40.000    23613731.883 7  92665369.840 7
      2735.809          44.000  
  20715975.727 7 108863186.273 7       120.211          47.000    20715977.555 7
  84828460.863 7        93.676          45.000    20715979.117 8  81293949.469 8
        89.793          51.000  
  21618444.539 7 113605696.465 7      2077.852          45.000    21618446.367 7
  88523927.031 7      1619.098          45.000                                  
                                
  21575268.883 8 113378796.070 8       120.219          48.000    21575271.859 7
  88347121.422 7        93.641          46.000    21575269.195 8  84665981.199 8
        89.715          48.000  
 24 12 03 02 37 15.0000000  0  8G10G21G23G25G26G28G31G32
  20635322.063 8 108439338.672 8     -1145.219          50.000    20635325.320 7
  84498197.695 7      -892.461          47.000    20635322.734 8  80977424.363 8
      -855.262          51.000  
  24407306.906 6 128261245.668 6      -359.867          40.000    24407311.469 5
  99943836.699 5      -280.418          34.000                                  
                                
  23225498.711 7 122050776.828 7     -3298.313          43.000    23225508.359 6
  95104517.930 6     -2570.117          38.000    23225511.539 7  91141854.133 7
     -2462.836          42.000  
  21667192.867 7 113861864.996 7      -481.848          45.000    21667198.453 7
  88723561.395 7      -375.469          43.000    21667197.414 7  85026733.246 7
      -359.906          47.000  
  23610234.195 6 124072622.211 6      3663.328          41.000    23610246.766 6
  96680041.949 6      2854.527          40.000    23610246.281 7  92651691.664 7
      2735.563          44.000  
  20715862.516 7 108862591.309 7       118.121          47.000    20715864.336 7
  84827997.234 7        92.035          45.000    20715865.914 8  81293505.180 8
        88.082          51.000  
  21616468.664 7 113595313.258 7      2075.641          45.000    21616470.484 7
  88515836.230 7      1617.352          45.000                                  
                                
  21575154.906 8 113378197.145 8       119.695          48.000    21575157.906 7
  88346654.723 7        93.277          46.000    21575155.211 8  84665533.938 8
        89.402          48.000  
 24 12 03 02 37 20.0000000  0  8G10G21G23G25G26G28G31G32
  20636413.242 8 108445072.773 8     -1148.133          50.000    20636416.508 7
  84502665.805 7      -894.641          47.000    20636413.906 8  80981706.297 8
      -857.391          51.000  
  24407650.398 6 128263050.645 6      -361.945          40.000    24407654.930 5
  99945243.168 5      -282.035          34.000                                  
                                
  23228637.711 7 122067272.230 7     -3299.730          43.000    23228647.344 6
  95117371.434 6     -2571.223          38.000    23228650.547 7  91154172.047 7
     -2464.039          42.000  
  21667653.063 7 113864283.203 7      -485.250          45.000    21667658.609 7
  88725445.719 7      -378.156          43.000    21667657.602 7  85028539.043 7
      -362.367          47.000  
  23606748.781 6 124054306.375 6      3663.230          41.000    23606761.313 6
  96665769.898 6      2854.410          39.000    23606760.883 7  92638014.293 7
      2735.426          44.000  
  20715751.359 7 108862007.176 7       115.828          47.000    20715753.188 7
  84827542.090 7        90.230          45.000    20715754.773 8  81293068.969 8
        86.496          51.000  
  21614494.820 7 113584940.719 7      2073.523          45.000    21614496.633 7
  88507753.734 7      1615.727          45.000                                  
                                
  21575041.328 8 113377600.305 8       119.254          49.000    21575044.336 7
  88346189.648 7        92.938          46.000    21575041.633 8  84665088.242 8
        89.051          48.000  
 24 12 03 02 37 25.0000000  0  8G10G21G23G25G26G28G31G32
  20637507.289 8 108450821.945 8     -1151.281          50.000    20637510.570 7
  84507145.664 7      -897.105          47.000    20637507.945 8  80985999.488 8
      -859.727          51.000  
  24407995.852 6 128264865.895 6      -363.996          40.000    24408000.328 5
  99946657.625 5      -283.602          35.000                                  
                                
  23231778.125 7 122083775.000 7     -3301.289          43.000    23231787.719 6
  95130230.641 6     -2572.438          38.000    23231790.969 7  91166495.473 7
     -2465.270          42.000  
  21668116.492 7 113866718.484 7      -488.785          45.000    21668121.992 7
  88727343.340 7      -380.848          43.000    21668121.039 7  85030357.602 7
      -365.020          47.000  
  23603263.680 6 124035992.207 6      3662.652          41.000    23603276.188 6
  96651499.137 6      2854.020          40.000    23603275.805 7  92624338.164 7
      2735.078          44.000  
  20715642.367 7 108861434.398 7       113.441          47.000    20715644.195 7
  84827095.766 7        88.383          45.000    20715645.969 8  81292641.258 8
        84.676          51.000  
  21612523.117 7 113574579.422 7      2071.137          45.000    21612524.906 7
  88499679.996 7      1613.918          45.000                                  
                                
  21574928.250 8 113377006.109 8       118.504          48.000    21574931.281 7
  88345726.637 7        92.332          46.000    21574928.547 8  84664644.516 8
        88.535          48.000  
 24 12 03 02 37 30.0000000  0  8G10G21G23G25G26G28G31G32
  20638604.586 8 108456587.414 8     -1154.422          50.000    20638608.000 7
  84511638.195 7      -899.449          47.000    20638605.211 8  80990304.836 8
      -862.023          51.000  
  24408343.523 6 128266692.676 6      -366.188          40.000    24408347.734 5
  99948081.055 5      -285.367          34.000                                  
                                
  23234920.531 7 122100286.387 7     -3302.730          42.000    23234929.961 6
  95143096.566 6     -2573.559          38.000    23234933.008 7  91178825.285 7
     -2466.258          42.000  
  21668583.586 7 113869172.078 7      -492.148          45.000    21668588.594 7
  88729255.230 7      -383.484          43.000    21668588.039 7  85032189.824 7
      -367.496          47.000  
  23599779.133 6 124017680.891 6      3662.504          41.000    23599791.617 6
  96637230.625 6      2853.734          40.000    23599791.266 7  92610664.156 7
      2734.949          44.000  
  20715535.828 7 108860874.195 7       111.191          47.000    20715537.641 7
  84826659.234 7        86.648          45.000    20715539.383 8  81292222.914 8
        83.020          51.000  
  21610553.633 7 113564230.578 7      2068.863          45.000    21610555.367 7
  88491615.961 7      1612.160          45.000                                  
                                
  21574815.898 8 113376415.758 8       117.992          48.000    21574819.188 7
  88345266.598 7        92.055          46.000    21574816.180 8  84664203.656 8
        88.152          48.000  
 24 12 03 02 37 35.0000000  0  8G10G21G23G25G26G28G31G32
  20639704.734 8 108462368.609 8     -1158.434          50.000    20639708.141 7
  84516143.020 7      -902.668          47.000    20639705.344 8  80994621.945 8
      -865.074          51.000  
  24408693.281 6 128268530.371 6      -369.203          40.000    24408697.438 5
  99949513.000 5      -287.695          34.000                                  
                                
  23238064.086 7 122116805.777 7     -3305.352          43.000    23238073.516 6
  95155968.750 6     -2575.605          38.000    23238076.578 7  91191161.090 7
     -2468.168          42.000  
  21669053.852 7 113871643.387 7      -496.652          45.000    21669058.852 7
  88731180.934 7      -387.063          43.000    21669058.344 7  85034035.285 7
      -370.902          47.000  
  23596294.672 6 123999371.902 6      3660.965          41.000    23596307.500 6
  96622963.902 6      2852.762          40.000    23596307.172 7  92596991.898 7
      2733.820          44.000  
  20715431.500 7 108860326.000 7       107.770          47.000    20715433.320 7
  84826232.074 7        84.027          45.000    20715435.078 8  81291813.547 8
        80.500          51.000  
  21608586.570 7 113553893.617 7      2065.570          45.000    21608588.328 7
  88483561.199 7      1609.531          45.000                                  
                                
  21574704.172 8 113375828.691 8       116.449          48.000    21574707.469 7
  88344809.152 7        90.691          46.000    21574704.453 8  84663765.262 8
        86.965          48.000  
 24 12 03 02 37 40.0000000  0  8G10G21G23G25G26G28G31G32
  20640807.984 8 108468166.102 8     -1160.926          50.000    20640811.391 7
  84520660.523 7      -904.590          47.000    20640808.578 8  80998951.215 8
      -866.891          51.000  
  24409045.195 6 128270379.445 6      -370.691          40.000    24409049.305 5
  99950953.785 5      -288.816          34.000                                  
                                
  23241209.273 7 122133333.734 7     -3306.191          43.000    23241218.688 6
  95168847.582 6     -2576.254          38.000    23241221.781 7  91203503.293 7
     -2468.848          42.000  
  21669527.602 7 113874132.988 7      -499.469          45.000    21669532.633 7
  88733120.879 7      -389.207          43.000    21669532.117 7  85035894.402 7
      -372.992          47.000  
  23592811.125 6 123981065.809 6      3661.156          41.000    23592823.945 6
  96608699.441 6      2852.816          39.000    23592823.438 7  92583321.797 7
      2733.984          44.000  
  20715329.570 7 108859790.359 7       106.148          47.000    20715331.375 7
  84825814.664 7        82.695          45.000    20715333.156 8  81291413.547 8
        79.262          51.000  
  21606621.875 7 113543569.113 7      2063.844          45.000    21606623.641 7
  88475516.129 7      1608.277          45.000                                  
                                
  21574593.172 8 113375245.480 8       116.441          49.000    21574596.500 7
  88344354.691 7        90.762          46.000    21574593.461 8  84663329.738 8
        86.984          48.000  
 24 12 03 02 37 45.0000000  0  8G10G21G23G25G26G28G31G32
  20641913.367 8 108473974.828 8     -1162.234          50.000    20641916.750 7
  84525186.773 7      -905.566          47.000    20641913.953 8  81003288.875 8
      -867.883          51.000  
  24409398.336 6 128272235.027 6      -371.078          40.000    24409402.391 5
  99952399.652 5      -289.133          34.000                                  
                                
  23244355.125 7 122149865.211 7     -3306.039          43.000    23244364.539 6
  95181729.152 6     -2576.141          38.000    23244367.648 7  91215848.133 7
     -2468.738          42.000  
  21670003.875 7 113876635.867 7      -501.270          45.000    21670008.977 7
  88735071.180 7      -390.684          43.000    21670008.422 7  85037763.434 7
      -374.273          47.000  
  23589327.188 6 123962757.590 6      3662.559          41.000    23589339.406 6
  96594433.313 6      2853.895          39.000    23589339.508 7  92569650.109 7
      2734.922          45.000  
  20715229.063 7 108859262.227 7       105.508          47.000    20715230.875 7
  84825403.145 7        82.254          45.000    20715232.672 8  81291019.168 8
        78.789          51.000  
  21604658.594 7 113533252.031 7      2063.340          46.000    21604660.375 7
  88467476.855 7      1607.809          45.000                                  
                                
  21574481.953 8 113374661.113 8       117.605          49.000    21574485.313 7
  88343899.332 7        91.617          46.000    21574482.242 8  84662893.348 8
        87.855          48.000  
 24 12 03 02 37 50.0000000  0  8G10G21G23G25G26G28G31G32
  20643020.828 8 108479794.488 8     -1165.324          50.000    20643024.188 7
  84529721.570 7      -907.992          47.000    20643021.406 8  81007634.715 8
      -870.242          51.000  
  24409752.641 6 128274096.742 6      -373.285          40.000    24409756.641 5
  99953850.340 5      -290.828          34.000                                  
                                
  23247501.602 7 122166399.879 7     -3307.531          43.000    23247511.008 6
  95194613.234 6     -2577.297          38.000    23247514.117 7  91228195.359 7
     -2469.895          42.000  
  21670482.602 7 113879151.652 7      -504.738          45.000    21670487.773 7
  88737031.531 7      -393.277          43.000    21670487.180 7  85039642.113 7
      -376.922          47.000  
  23585842.781 6 123944446.922 6      3661.992          41.000    23585855.031 6
  96580165.305 6      2853.527          40.000    23585855.086 7  92555976.590 7
      2734.707          45.000  
  20715129.938 7 108858741.289 7       103.156          47.000    20715131.742 7
  84824997.230 7        80.367          45.000    20715133.547 8  81290630.160 8
        77.035          51.000  
  21602696.656 7 113522942.055 7      2061.039          46.000    21602698.469 7
  88459443.117 7      1606.020          45.000                                  
                                
  21574370.445 8 113374075.219 8       117.070          49.000    21574373.836 7
  88343442.801 7        91.137          46.000    21574370.750 8  84662455.832 8
        87.414          48.000  
 24 12 03 02 37 55.0000000  0  8G10G21G23G25G26G28G31G32
  20644131.195 8 108485629.402 8     -1168.469          50.000    20644134.523 7
  84534268.227 7      -910.488          47.000    20644131.758 8  81011991.922 8
      -872.551          51.000  
  24410108.930 6 128275968.902 6      -375.430          40.000    24410112.875 5
  99955309.102 5      -292.523          34.000                                  
                                
  23250649.508 7 122182942.055 7     -3309.191          43.000    23250658.914 6
  95207503.145 6     -2578.594          38.000    23250662.617 7  91240548.184 7
     -2471.102          42.000  
  21670964.609 7 113881684.691 7      -508.262          45.000    21670969.852 7
  88739005.324 7      -396.094          43.000    21670969.211 7  85041533.660 7
      -379.508          47.000  
  23582358.742 6 123926138.152 6      3661.641          41.000    23582371.047 6
  96565898.773 6      2853.070          40.000    23582371.031 7  92542304.492 7
      2734.316          44.000  
  20715033.000 7 108858231.855 7       100.852          47.000    20715034.789 7
  84824600.250 7        78.598          45.000    20715036.609 8  81290249.734 8
        75.277          51.000  
  21600736.914 7 113512643.543 7      2058.652          46.000    21600738.773 7
  88451418.301 7      1604.176          46.000                                  
                                
  21574259.484 8 113373492.180 8       116.414          49.000    21574262.891 7
  88342988.453 7        90.707          46.000    21574259.797 8  84662020.430 8
        86.934          48.000  
 24 12 03 02 38  0.0000000  0  8G10G21G23G25G26G28G31G32
  20645244.563 8 108491480.160 8     -1172.066          50.000    20645247.883 7
  84538827.246 7      -913.340          47.000    20645245.133 8  81016360.977 8
      -875.258          51.000  
  24410467.313 6 128277852.102 6      -378.090          40.000    24410471.242 5
  99956776.551 5      -294.652          34.000                                  
                                
  23253798.953 7 122199492.301 7     -3311.129          43.000    23253808.352 6
  95220399.379 6     -2580.102          38.000    23253812.055 7  91252907.035 7
     -2472.570          42.000  
  21671450.023 7 113884235.598 7      -512.262          45.000    21671455.336 7
  88740993.051 7      -399.164          44.000    21671454.648 7  85043438.566 7
      -382.551          47.000  
  23578875.172 6 123907831.902 6      3660.781          41.000    23578887.547 6
  96551634.195 6      2852.484          40.000    23578887.461 7  92528634.281 7
      2733.637          45.000  
  20714938.367 7 108857734.535 7        97.918          47.000    20714940.148 7
  84824212.750 7        76.277          45.000    20714941.977 8  81289878.355 8
        73.125          51.000  
  21598779.461 7 113502357.039 7      2055.727          46.000    21598781.352 7
  88443402.848 7      1601.941          46.000                                  
                                
  21574149.180 8 113372912.563 8       115.242          49.000    21574152.594 7
  88342536.805 7        89.785          46.000    21574149.500 8  84661587.594 8
        86.043          48.000  
 24 12 03 02 38  5.0000000  0  8G10G21G23G25G26G28G31G32
  20646360.930 8 108497346.656 8     -1174.777          50.000    20646364.227 7
  84543398.512 7      -915.316          47.000    20646361.492 8  81020741.770 8
      -877.250          51.000  
  24410827.758 6 128279746.195 6      -379.777          39.000    24410831.680 5
  99958252.477 5      -295.969          34.000                                  
                                
  23256949.906 7 122216050.520 7     -3312.191          43.000    23256959.305 6
  95233301.820 6     -2580.938          38.000    23256963.008 7  91265271.848 7
     -2473.426          42.000  
  21671938.805 7 113886804.238 7      -515.355          45.000    21671944.180 7
  88742994.582 7      -401.547          44.000    21671943.445 7  85045356.699 7
      -384.766          47.000  
  23575392.047 6 123889528.051 6      3660.676          41.000    23575404.469 6
  96537371.465 6      2852.512          40.000    23575404.344 7  92514965.852 7
      2733.727          45.000  
  20714846.016 7 108857249.176 7        95.996          47.000    20714847.789 7
  84823834.551 7        74.758          45.000    20714849.617 8  81289515.910 8
        71.723          51.000  
  21596824.266 7 113492082.430 7      2053.883          46.000    21596826.188 7
  88435396.664 7      1600.488          46.000                                  
                                
  21574039.500 8 113372336.258 8       115.074          49.000    21574042.930 7
  88342087.727 7        89.699          46.000    21574039.828 8  84661157.227 8
        85.961          48.000  
 24 12 03 02 38 10.0000000  0  8G10G21G23G25G26G28G31G32
  20647480.055 8 108503227.699 8     -1177.926          50.000    20647483.344 7
  84547981.125 7      -917.828          47.000    20647480.625 8  81025133.434 8
      -879.617          51.000  
  24411190.047 6 128281650.035 6      -382.008          39.000    24411193.953 5
  99959735.914 5      -297.648          34.000                                  
                                
  23260102.148 7 122232615.527 7     -3313.902          43.000    23260111.563 6
  95246209.512 6     -2582.266          38.000    23260115.258 7  91277641.719 7
     -2474.672          42.000  
  21672430.734 7 113889389.430 7      -518.848          45.000    21672436.172 7
  88745009.020 7      -404.297          44.000    21672435.398 7  85047287.203 7
      -387.449          47.000  
  23571909.164 6 123871225.453 6      3660.145          41.000    23571921.609 6
  96523109.742 6      2852.098          40.000    23571921.469 7  92501298.371 7
      2733.207          45.000  
  20714755.719 8 108856774.609 8        93.566          48.000    20714757.477 7
  84823464.738 7        72.949          45.000    20714759.313 8  81289161.531 8
        69.863          51.000  
  21594871.117 7 113481818.563 7      2051.527          46.000    21594873.063 7
  88427398.859 7      1598.582          46.000                                  
                                
  21573930.234 8 113371762.109 8       114.383          49.000    21573933.680 7
  88341640.336 7        89.125          46.000    21573930.578 8  84660728.469 8
        85.418          48.000  
 24 12 03 02 38 15.0000000  0  8G10G21G23G25G26G28G31G32
  20648601.969 8 108509123.395 8     -1180.645          50.000    20648605.250 7
  84552575.168 7      -920.023          47.000    20648602.547 8  81029536.051 8
      -881.676          51.000  
  24411554.203 6 128283563.688 6      -383.734          39.000    24411558.094 5
  99961227.047 5      -299.047          34.000                                  
                                
  23263255.711 7 122249187.422 7     -3315.137          43.000    23263265.125 6
  95259122.586 6     -2583.227          38.000    23263268.805 7  91290016.727 7
     -2475.414          42.000  
  21672925.852 7 113891991.293 7      -522.098          45.000    21672931.320 7
  88747036.465 7      -406.910          44.000    21672930.523 7  85049230.168 7
      -389.926          47.000  
  23568426.531 6 123852924.234 6      3660.078          41.000    23568439.031 6
  96508849.094 6      2851.980          40.000    23568438.859 7  92487631.914 7
      2733.160          45.000  
  20714667.508 7 108856310.953 7        91.629          47.000    20714669.250 7
  84823103.469 7        71.402          45.000    20714671.164 8  81288815.305 8
        68.410          51.000  
  21592920.039 7 113471565.539 7      2049.477          46.000    21592922.008 7
  88419409.500 7      1596.984          46.000                                  
                                
  21573821.391 8 113371190.207 8       114.063          48.000    21573824.852 7
  88341194.695 7        88.914          46.000    21573821.758 8  84660301.406 8
        85.195          48.000  
 24 12 03 02 38 20.0000000  0  8G10G21G23G25G26G28G31G32
  20649726.930 8 108515034.441 8     -1183.516          50.000    20649730.109 7
  84557181.148 7      -922.258          47.000    20649727.523 8  81033950.113 8
      -883.809          51.000  
  24411920.594 6 128285487.844 6      -385.723          39.000    24411924.211 5
  99962726.387 5      -300.621          34.000                                  
                                
  23266410.992 7 122265766.852 7     -3316.484          43.000    23266420.594 6
  95272041.563 6     -2584.277          38.000    23266423.789 7  91302397.371 7
     -2476.551          43.000  
  21673424.188 7 113894610.531 7      -525.465          45.000    21673430.141 7
  88749077.398 7      -409.391          44.000    21673429.086 7  85051186.074 7
      -392.363          47.000  
  23564944.297 6 123834625.066 6      3659.793          41.000    23564956.820 6
  96494590.012 6      2851.672          40.000    23564956.633 7  92473966.984 7
      2732.941          45.000  
  20714581.539 8 108855858.871 8        89.488          48.000    20714583.180 7
  84822751.195 7        69.703          45.000    20714585.125 8  81288477.707 8
        66.770          51.000  
  21590971.133 7 113461324.063 7      2047.277          46.000    21590973.359 7
  88411429.117 7      1595.344          46.000                                  
                                
  21573712.984 8 113370621.250 8       113.605          49.000    21573716.641 7
  88340751.332 7        88.570          46.000    21573713.484 8  84659876.516 8
        84.863          48.000  
 24 12 03 02 38 25.0000000  0  8G10G21G23G25G26G28G31G32
  20650854.836 8 108520961.715 8     -1187.207          50.000    20650858.039 7
  84561799.793 7      -925.141          47.000    20650855.453 8  81038376.305 8
      -886.559          51.000  
  24412288.875 6 128287423.387 6      -388.348          39.000    24412292.547 5
  99964234.551 5      -302.629          34.000                                  
                                
  23269567.578 7 122282354.707 7     -3318.523          43.000    23269577.203 6
  95284967.070 6     -2585.863          38.000    23269580.391 7  91314784.316 7
     -2478.199          43.000  
  21673926.086 7 113897247.988 7      -529.496          45.000    21673932.086 7
  88751132.570 7      -412.598          44.000    21673930.969 7  85053155.602 7
      -395.375          47.000  
  23561462.500 6 123816328.879 6      3658.754          41.000    23561475.156 6
  96480333.273 6      2850.992          40.000    23561474.977 7  92460304.281 7
      2732.148          45.000  
  20714497.906 7 108855419.254 7        86.496          47.000    20714499.531 7
  84822408.633 7        67.387          45.000    20714501.461 8  81288149.414 8
        64.633          51.000  
  21589024.617 7 113451095.004 7      2044.449          46.000    21589026.867 7
  88403458.434 7      1593.125          46.000                                  
                                
  21573605.430 8 113370056.121 8       112.492          48.000    21573609.094 7
  88340310.984 7        87.605          46.000    21573605.969 8  84659454.512 8
        83.973          48.000  
 24 12 03 02 38 30.0000000  0  8G10G21G23G25G26G28G31G32
  20651985.867 8 108526905.414 8     -1190.066          50.000    20651989.086 7
  84566431.223 7      -927.344          47.000    20651986.516 8  81042814.754 8
      -888.691          51.000  
  24412659.375 6 128289370.547 6      -390.238          39.000    24412663.094 5
  99965751.801 5      -304.113          34.000                                  
                                
  23272725.805 7 122298951.184 7     -3319.859          43.000    23272735.453 6
  95297899.301 6     -2586.902          38.000    23272738.625 7  91327177.680 7
     -2479.109          43.000  
  21674431.484 7 113899903.855 7      -532.707          45.000    21674437.500 7
  88753202.078 7      -415.113          43.000    21674436.359 7  85055138.883 7
      -397.805          47.000  
  23557981.414 6 123798035.836 6      3658.688          41.000    23557994.086 6
  96466078.977 6      2850.914          40.000    23557993.766 7  92446643.926 7
      2732.105          45.000  
  20714416.672 7 108854992.270 7        84.469          47.000    20714418.281 7
  84822075.906 7        65.828          45.000    20714420.195 8  81287830.555 8
        63.109          51.000  
  21587080.500 7 113440878.523 7      2042.449          46.000    21587082.750 7
  88395497.555 7      1591.426          46.000                                  
                                
  21573498.648 8 113369495.027 8       112.223          48.000    21573502.305 7
  88339873.758 7        87.465          46.000    21573499.219 8  84659035.500 8
        83.770          48.000  
 24 12 03 02 38 35.0000000  0  8G10G21G23G25G26G28G31G32
  20653119.484 8 108532862.672 8     -1192.465          50.000    20653122.711 7
  84571073.215 7      -929.207          47.000    20653120.156 8  81047263.332 8
      -890.480          51.000  
  24413031.523 6 128291326.395 6      -391.770          39.000    24413035.297 5
  99967275.836 5      -305.305          34.000                                  
                                
  23275885.141 7 122315553.395 7     -3320.664          43.000    23275894.797 6
  95310836.012 6     -2587.535          38.000    23275897.945 7  91339575.328 7
     -2479.684          43.000  
  21674939.859 7 113902575.301 7      -535.484          45.000    21674945.836 7
  88755283.723 7      -417.238          43.000    21674944.711 7  85057133.789 7
      -399.879          47.000  
  23554500.383 6 123779743.133 6      3658.859          40.000    23554513.164 6
  96451824.973 6      2851.000          40.000    23554512.773 7  92432983.820 7
      2732.250          45.000  
  20714337.297 7 108854575.066 7        82.793          47.000    20714338.898 7
  84821750.828 7        64.488          45.000    20714340.797 8  81287519.016 8
        61.855          51.000  
  21585138.242 7 113430671.820 7      2040.715          46.000    21585140.484 7
  88387544.281 7      1590.168          46.000                                  
                                
  21573392.078 8 113368935.102 8       112.246          48.000    21573395.734 7
  88339437.457 7        87.434          46.000    21573392.688 8  84658617.371 8
        83.785          48.000  
 24 12 03 02 38 40.0000000  0  8G10G21G23G25G26G28G31G32
  20654255.680 8 108538833.484 8     -1195.945          50.000    20654258.922 7
  84575725.785 7      -931.965          47.000    20654256.375 8  81051722.031 8
      -893.066          51.000  
  24413405.336 6 128293290.941 6      -394.203          39.000    24413409.141 5
  99968806.605 5      -307.172          34.000                                  
                                
  23279045.563 7 122332161.359 7     -3322.641          43.000    23279055.227 6
  95323777.152 6     -2589.070          38.000    23279058.367 7  91351977.277 7
     -2481.145          43.000  
  21675451.195 7 113905262.332 7      -539.406          45.000    21675457.133 7
  88757377.516 7      -420.309          43.000    21675456.031 7  85059140.340 7
      -402.773          47.000  
  23551019.430 6 123761450.770 6      3657.953          40.000    23551032.188 6
  96437571.195 6      2850.504          40.000    23551031.844 7  92419323.980 7
      2731.652          45.000  
  20714259.781 7 108854167.645 7        80.094          47.000    20714261.375 7
  84821433.348 7        62.387          45.000    20714263.258 8  81287214.777 8
        59.805          51.000  
  21583197.844 7 113420474.879 7      2038.004          46.000    21583200.070 7
  88379598.621 7      1588.031          46.000                                  
                                
  21573285.750 8 113368376.367 8       111.180          49.000    21573289.398 7
  88339002.070 7        86.648          46.000    21573286.391 8  84658200.133 8
        82.988          48.000  
 24 12 03 02 38 45.0000000  0  8G10G21G23G25G26G28G31G32
  20655394.852 8 108544819.906 8     -1198.559          50.000    20655398.102 7
  84580390.496 7      -933.859          47.000    20655395.570 8  81056192.391 8
      -895.000          51.000  
  24413781.203 6 128295266.250 6      -395.809          39.000    24413785.039 5
  99970345.793 5      -308.391          34.000                                  
                                
  23282207.477 7 122348777.090 7     -3323.574          43.000    23282217.148 6
  95336724.426 6     -2589.805          38.000    23282220.828 7  91364385.031 7
     -2481.863          43.000  
  21675965.883 7 113907966.988 7      -542.281          45.000    21675971.758 7
  88759485.031 7      -422.547          43.000    21675970.711 7  85061160.051 7
      -404.984          47.000  
  23547538.945 6 123743160.820 6      3658.090          41.000    23547551.680 6
  96423319.332 6      2850.348          40.000    23547551.367 7  92405665.938 7
      2731.676          45.000  
  20714184.516 7 108853772.059 7        78.223          47.000    20714186.109 7
  84821125.094 7        60.957          45.000    20714187.969 8  81286919.363 8
        58.457          51.000  
  21581259.695 7 113410289.738 7      2036.160          46.000    21581261.891 7
  88371662.152 7      1586.652          46.000                                  
                                
  21573180.039 8 113367820.875 8       111.102          49.000    21573183.680 7
  88338569.215 7        86.582          46.000    21573180.695 8  84657785.309 8
        82.988          48.000  
 24 12 03 02 38 50.0000000  0  8G10G21G23G25G26G28G31G32
  20656536.906 8 108550821.473 8     -1202.172          50.000    20656540.180 7
  84585067.027 7      -936.680          47.000    20656537.648 8  81060674.059 8
      -897.734          51.000  
  24414159.023 6 128297251.789 6      -398.469          39.000    24414162.883 5
  99971892.945 5      -310.512          34.000                                  
                                
  23285370.781 7 122365400.125 7     -3325.586          43.000    23285380.453 6
  95349677.340 6     -2591.367          38.000    23285384.133 7  91376798.242 7
     -2483.371          43.000  
  21676483.820 7 113910688.785 7      -546.387          45.000    21676489.648 7
  88761605.922 7      -425.805          43.000    21676488.648 7  85063192.559 7
      -408.051          47.000  
  23544058.836 6 123724872.813 6      3657.086          41.000    23544071.570 6
  96409068.949 6      2849.813          41.000    23544071.258 7  92392009.344 7
      2730.930          45.000  
  20714111.406 7 108853387.805 7        75.348          47.000    20714112.992 7
  84820825.676 7        58.738          45.000    20714114.844 8  81286632.426 8
        56.277          51.000  
  21579323.703 7 113400115.957 7      2033.289          46.000    21579325.867 7
  88363734.527 7      1584.461          46.000                                  
                                
  21573074.859 8 113367268.133 8       109.922          49.000    21573078.492 7
  88338138.500 7        85.684          46.000    21573075.531 8  84657372.539 8
        82.133          48.000  
 24 12 03 02 38 55.0000000  0  8G10G21G23G25G26G28G31G32
  20657681.906 8 108556838.504 8     -1204.668          50.000    20657685.188 7
  84589755.609 7      -938.695          47.000    20657682.664 8  81065167.270 8
      -899.602          51.000  
  24414538.875 6 128299247.914 6      -399.961          40.000    24414542.727 5
  99973448.348 5      -311.652          34.000                                  
                                
  23288535.539 7 122382030.793 7     -3326.621          43.000    23288545.211 6
  95362636.203 6     -2592.172          38.000    23288548.875 7  91389217.137 7
     -2484.164          43.000  
  21677005.086 7 113913428.063 7      -549.348          45.000    21677010.867 7
  88763740.406 7      -428.039          43.000    21677009.914 7  85065238.117 7
      -410.227          47.000  
  23540579.156 6 123706587.102 6      3657.250          41.000    23540591.922 6
  96394820.383 6      2849.754          41.000    23540591.602 7  92378354.465 7
      2731.031          45.000  
  20714040.516 7 108853015.219 7        73.613          47.000    20714042.094 7
  84820535.355 7        57.359          45.000    20714043.930 8  81286354.188 8
        54.996          51.000  
  21577389.938 7 113389953.867 7      2031.512          46.000    21577392.070 7
  88355816.020 7      1583.121          46.000                                  
                                
  21572970.266 8 113366718.492 8       109.906          49.000    21572973.883 7
  88337710.199 7        85.695          46.000    21572970.945 8  84656962.090 8
        82.070          48.000  
 24 12 03 02 39  0.0000000  0  8G10G21G23G25G26G28G31G32
  20658829.813 8 108562870.758 8     -1208.195          50.000    20658833.094 7
  84594456.043 7      -941.434          47.000    20658830.578 8  81069671.852 8
      -902.199          51.000  
  24414920.703 6 128301254.398 6      -402.508          40.000    24414924.547 5
  99975011.773 5      -313.637          34.000                                  
                                
  23291701.695 7 122398668.801 7     -3328.547          43.000    23291711.375 6
  95375600.824 6     -2593.676          38.000    23291715.031 7  91401641.512 7
     -2485.578          43.000  
  21677529.609 7 113916184.551 7      -553.180          45.000    21677535.375 7
  88765888.320 7      -431.066          43.000    21677534.453 7  85067296.535 7
      -413.125          47.000  
  23537099.859 6 123688303.438 6      3656.344          41.000    23537112.664 6
  96380573.391 6      2849.113          41.000    23537112.320 7  92364701.109 7
      2730.324          45.000  
  20713971.789 7 108852654.039 7        70.875          47.000    20713973.375 7
  84820253.922 7        55.238          45.000    20713975.195 8  81286084.484 8
        52.918          51.000  
  21575458.344 7 113379803.215 7      2028.773          46.000    21575460.445 7
  88347906.441 7      1580.852          46.000                                  
                                
  21572866.219 8 113366171.703 8       108.871          49.000    21572869.828 7
  88337284.133 7        84.813          46.000    21572866.898 8  84656553.766 8
        81.324          48.000  
 24 12 03 02 39  5.0000000  0  8G10G21G23G25G26G28G31G32
  20659980.406 8 108568917.180 8     -1210.816          50.000    20659983.711 8
  84599167.523 8      -943.520          48.000    20659981.188 8  81074187.016 8
      -904.164          51.000  
  24415304.305 6 128303270.160 6      -404.195          40.000    24415308.172 5
  99976582.543 5      -314.973          34.000                                  
                                
  23294869.055 7 122415313.125 7     -3329.652          43.000    23294878.711 6
  95388570.336 6     -2594.535          38.000    23294882.383 7  91414070.613 7
     -2486.355          44.000  
  21678057.219 7 113918957.234 7      -556.250          45.000    21678062.961 7
  88768048.863 7      -433.477          44.000    21678062.078 7  85069367.047 7
      -415.395          47.000  
  23533620.773 6 123670020.832 6      3656.250          41.000    23533633.586 6
  96366327.211 6      2849.156          41.000    23533633.242 7  92351048.520 7
      2730.406          45.000  
  20713905.039 7 108852303.238 7        69.020          47.000    20713906.625 7
  84819980.570 7        53.766          45.000    20713908.352 8  81285822.516 8
        51.551          51.000  
  21573528.734 7 113369662.980 7      2026.906          46.000    21573530.813 7
  88340004.973 7      1579.344          46.000                                  
                                
  21572762.523 8 113365626.730 8       108.660          49.000    21572766.125 7
  88336859.477 7        84.672          47.000    21572763.203 8  84656146.809 8
        81.117          48.000  
 24 12 03 02 39 10.0000000  0  8G10G21G23G25G26G28G31G32
  20661133.852 8 108574978.902 8     -1213.934          50.000    20661137.313 8
  84603890.922 8      -945.910          48.000    20661134.898 8  81078713.602 8
      -906.496          51.000  
  24415689.742 6 128305296.348 6      -406.348          40.000    24415693.906 5
  99978161.320 5      -316.652          34.000                                  
                                
  23298038.219 7 122431964.875 7     -3331.234          44.000    23298048.117 6
  95401545.625 6     -2595.773          38.000    23298051.148 7  91426505.258 7
     -2487.508          44.000  
  21678588.117 7 113921747.242 7      -559.871          45.000    21678593.633 7
  88770222.891 7      -436.320          43.000    21678592.961 7  85071450.477 7
      -418.012          47.000  
  23530142.086 6 123651740.336 6      3655.668          41.000    23530154.906 6
  96352082.723 6      2848.695          41.000    23530154.578 7  92337397.566 7
      2729.949          46.000  
  20713840.609 7 108851963.922 7        66.609          47.000    20713842.133 7
  84819716.164 7        51.883          45.000    20713843.781 8  81285569.133 8
        49.727          51.000  
  21571601.461 7 113359534.281 7      2024.488          46.000    21571603.352 7
  88332112.473 7      1577.551          46.000                                  
                                
  21572659.352 8 113365084.699 8       107.961          49.000    21572662.898 7
  88336437.102 7        84.152          46.000    21572660.211 8  84655742.035 8
        80.602          48.000  
 24 12 03 02 39 15.0000000  0  8G10G21G23G25G26G28G31G32
  20662290.398 8 108581056.523 8     -1216.754          50.000    20662293.867 7
  84608626.707 7      -948.078          47.000    20662291.445 8  81083252.063 8
      -908.602          51.000  
  24416077.461 6 128307333.543 6      -408.234          40.000    24416081.563 5
  99979748.707 5      -318.113          34.000                                  
                                
  23301208.516 7 122448624.621 7     -3332.504          44.000    23301218.406 6
  95414527.176 6     -2596.762          38.000    23301221.430 7  91438945.887 7
     -2488.473          44.000  
  21679122.406 7 113924555.145 7      -563.016          45.000    21679127.914 7
  88772410.855 7      -438.762          43.000    21679127.289 7  85073547.297 7
      -420.469          47.000  
  23526663.641 6 123633462.645 6      3655.418          41.000    23526676.758 6
  96337840.402 6      2848.555          40.000    23526676.445 7  92323748.680 7
      2729.734          46.000  
  20713778.328 7 108851636.691 7        64.543          47.000    20713779.867 7
  84819461.168 7        50.250          45.000    20713781.508 8  81285324.762 8
        48.203          51.000  
  21569676.344 7 113349417.703 7      2022.422          46.000    21569678.203 7
  88324229.434 7      1575.879          46.000                                  
                                
  21572556.906 8 113364546.215 8       107.676          49.000    21572560.430 7
  88336017.504 7        83.844          46.000    21572557.727 8  84655339.910 8
        80.445          48.000  
 24 12 03 02 39 20.0000000  0  8G10G21G23G25G26G28G31G32
  20663449.703 8 108587148.664 8     -1219.340          50.000    20663453.180 7
  84613373.816 7      -950.156          47.000    20663450.758 8  81087801.367 8
      -910.570          51.000  
  24416467.008 6 128309380.367 6      -409.801          40.000    24416471.086 5
  99981343.625 5      -319.359          34.000                                  
                                
  23304380.078 7 122465291.031 7     -3333.457          44.000    23304389.953 6
  95427513.891 6     -2597.508          38.000    23304392.984 7  91451391.465 7
     -2489.230          44.000  
  21679659.859 7 113927379.609 7      -566.063          45.000    21679665.352 7
  88774611.746 7      -441.188          43.000    21679664.773 7  85075656.477 7
      -422.742          47.000  
  23523185.750 6 123615186.375 6      3655.590          41.000    23523198.859 6
  96323599.195 6      2848.441          40.000    23523198.391 7  92310100.848 7
      2729.871          45.000  
  20713718.078 7 108851320.156 7        62.789          47.000    20713719.641 7
  84819214.527 7        48.910          45.000    20713721.273 8  81285088.398 8
        46.824          51.000  
  21567753.273 7 113339311.902 7      2020.617          46.000    21567755.117 7
  88316354.793 7      1574.492          46.000                                  
                                
  21572454.867 8 113364009.898 8       107.586          49.000    21572458.352 7
  88335599.598 7        83.766          46.000    21572455.656 8  84654939.414 8
        80.301          48.000  
 24 12 03 02 39 25.0000000  0  8G10G21G23G25G26G28G31G32
  20664611.594 8 108593254.402 8     -1222.637          50.000    20664615.086 8
  84618131.512 8      -952.660          48.000    20664612.648 8  81092360.824 8
      -912.977          51.000  
  24416858.195 6 128311435.879 6      -412.031          40.000    24416862.227 5
  99982945.273 5      -321.027          34.000                                  
                                
  23307552.719 7 122481963.090 7     -3335.078          44.000    23307562.586 6
  95440505.020 6     -2598.766          38.000    23307565.625 7  91463841.289 7
     -2490.492          44.000  
  21680200.289 7 113930219.656 7      -569.695          45.000    21680205.773 7
  88776824.750 7      -443.891          44.000    21680205.219 7  85077777.293 7
      -425.457          47.000  
  23519707.969 6 123596910.605 6      3654.914          41.000    23519720.742 6
  96309358.340 6      2848.039          40.000    23519720.609 7  92296453.387 7
      2729.328          45.000  
  20713659.688 7 108851013.379 7        60.234          47.000    20713661.258 7
  84818975.469 7        46.938          45.000    20713662.891 8  81284859.301 8
        45.000          51.000  
  21565832.070 7 113329215.922 7      2018.051          46.000    21565833.914 7
  88308487.797 7      1572.578          46.000                                  
                                
  21572353.070 8 113363474.824 8       106.742          49.000    21572356.508 7
  88335182.637 7        83.258          46.000    21572353.813 8  84654539.832 8
        79.762          48.000  
 24 12 03 02 39 30.0000000  0  8G10G21G23G25G26G28G31G32
  20665776.281 8 108599374.773 8     -1225.438          50.000    20665779.773 8
  84622900.613 8      -954.840          48.000    20665777.328 8  81096931.203 8
      -915.074          51.000  
  24417251.242 6 128313501.160 6      -413.996          40.000    24417255.234 5
  99984554.582 5      -322.590          34.000                                  
                                
  23310726.648 7 122498641.906 7     -3336.383          44.000    23310736.500 6
  95453501.414 6     -2599.777          38.000    23310739.539 7  91476296.137 7
     -2491.414          44.000  
  21680743.891 7 113933076.348 7      -572.902          45.000    21680749.367 7
  88779050.742 7      -446.340          44.000    21680748.820 7  85079910.531 7
      -427.828          47.000  
  23516230.477 6 123578636.402 6      3654.742          41.000    23516243.195 6
  96295118.723 6      2847.840          41.000    23516243.109 7  92282807.094 7
      2729.164          45.000  
  20713603.359 7 108850717.414 7        58.168          47.000    20713604.945 7
  84818744.844 7        45.332          45.000    20713606.570 8  81284638.289 8
        43.465          51.000  
  21563912.938 7 113319130.832 7      2016.047          46.000    21563914.781 7
  88300629.301 7      1570.918          46.000                                  
                                
  21572251.719 8 113362942.047 8       106.434          49.000    21572255.109 7
  88334767.496 7        82.906          46.000    21572252.414 8  84654141.984 8
        79.488          48.000  
 24 12 03 02 39 35.0000000  0  8G10G21G23G25G26G28G31G32
  20666943.953 8 108605510.883 8     -1228.953          50.000    20666947.445 7
  84627681.980 7      -957.664          47.000    20666945.000 8  81101513.344 8
      -917.727          51.000  
  24417646.359 6 128315577.254 6      -416.445          40.000    24417650.313 5
  99986172.277 5      -324.504          34.000                                  
                                
  23313902.070 7 122515328.543 7     -3338.305          44.000    23313911.898 6
  95466503.863 6     -2601.281          38.000    23313915.625 7  91488756.813 7
     -2492.801          44.000  
  21681290.883 7 113935950.813 7      -576.879          45.000    21681296.328 7
  88781290.582 7      -449.508          44.000    21681295.805 7  85082057.035 7
      -430.750          47.000  
  23512753.516 6 123560364.871 6      3653.641          41.000    23512766.195 6
  96280881.211 6      2847.035          41.000    23512766.133 7  92269162.797 7
      2728.449          45.000  
  20713549.297 7 108850433.348 7        55.434          47.000    20713550.883 7
  84818523.477 7        43.199          45.000    20713552.516 8  81284426.156 8
        41.363          51.000  
  21561996.102 7 113309057.770 7      2013.270          46.000    21561997.930 7
  88292780.164 7      1568.742          46.000                                  
                                
  21572151.008 8 113362412.699 8       105.324          49.000    21572154.359 7
  88334355.008 7        82.000          46.000    21572151.664 8  84653746.680 8
        78.645          48.000  
 24 12 03 02 39 40.0000000  0  8G10G21G23G25G26G28G31G32
  20668114.703 8 108611663.133 8     -1232.340          50.000    20668118.188 7
  84632475.918 7      -960.227          47.000    20668115.742 8  81106107.527 8
      -920.254          51.000  
  24418043.602 6 128317664.602 6      -418.871          40.000    24418047.531 5
  99987798.773 5      -326.422          34.000                                  
                                
  23317079.047 7 122532023.379 7     -3340.035          44.000    23317088.867 6
  95479512.762 6     -2602.629          38.000    23317092.602 7  91501223.641 7
     -2494.117          44.000  
  21681841.336 7 113938843.430 7      -580.703          45.000    21681846.750 7
  88783544.578 7      -452.512          43.000    21681846.250 7  85084217.113 7
      -433.652          47.000  
  23509277.125 6 123542096.414 6      3653.082          41.000    23509289.805 6
  96266646.082 6      2846.531          40.000    23509289.758 7  92255520.809 7
      2727.996          45.000  
  20713497.578 7 108850161.574 7        52.875          47.000    20713499.180 7
  84818311.730 7        41.188          45.000    20713500.789 8  81284223.211 8
        39.430          51.000  
  21560081.609 7 113298997.074 7      2010.648          46.000    21560083.430 7
  88284940.676 7      1566.672          46.000                                  
                                
  21572051.023 8 113361887.145 8       104.383          49.000    21572054.344 7
  88333945.469 7        81.391          46.000    21572051.641 8  84653354.211 8
        78.008          48.000  
 24 12 03 02 39 45.0000000  0  8G10G21G23G25G26G28G31G32
  20669288.578 8 108617831.828 8     -1235.172          50.000    20669292.063 7
  84637282.672 7      -962.469          47.000    20669289.609 8  81110713.996 8
      -922.320          51.000  
  24418443.031 6 128319763.453 6      -420.742          40.000    24418446.922 5
  99989434.203 5      -327.867          34.000                                  
                                
  23320257.641 7 122548726.758 7     -3341.418          44.000    23320267.445 6
  95492528.297 6     -2603.707          38.000    23320271.195 7  91513696.840 7
     -2495.141          44.000  
  21682395.297 7 113941754.496 7      -583.887          45.000    21682400.680 7
  88785812.934 7      -454.949          43.000    21682400.203 7  85086390.957 7
      -436.035          47.000  
  23505801.398 6 123523831.406 6      3652.879          41.000    23505814.094 6
  96252413.645 6      2846.340          40.000    23505814.031 7  92241881.395 7
      2727.711          45.000  
  20713448.258 7 108849902.430 7        50.742          47.000    20713449.867 7
  84818109.793 7        39.531          45.000    20713451.477 8  81284029.688 8
        37.902          51.000  
  21558169.547 7 113288949.094 7      2008.500          46.000    21558171.344 7
  88277111.078 7      1565.035          45.000                                  
                                
  21571951.820 8 113361365.719 8       104.078          49.000    21571955.125 7
  88333539.164 7        81.090          46.000    21571952.406 8  84652964.836 8
        77.703          48.000  
